img_name,lat,lng,place_id,osm_type,osm_id,osm_key,osm_value,type,accuracy,label,name,postcode,locality,district,city,county,state,country,country_code,housenumber,street
img_16754.jpg,45.37026596069336,8.999021530151367,69208778,way,692376423,highway,unclassified,street,0,"Gudo Visconti, Unione dei Comuni I Fontanili, Milano, Lombardia, 20088, Italia",,20088,,,Gudo Visconti,Milano,Lombardia,Italia,it,,
img_16755.jpg,29.41437530517578,-98.70533752441406,377144731,way,103165560,place,house,house,0,"10778, Bearwolf Bay, Bexar County, Texas, 78245, United States",,78245,,,,Bexar County,Texas,United States,us,10778,Bearwolf Bay
img_16756.jpg,34.34431457519531,134.12570190429688,247120265,way,82494797,highway,tertiary,street,0,"牟礼町牟礼, 高松市, 香川県, 761-0121, 日本",,761-0121,牟礼町牟礼,,高松市,,香川県,日本,jp,,
img_16757.jpg,43.472652435302734,-3.8179972171783447,269688600,way,68340111,highway,secondary,street,0,"Barrio La Torre, Barrio Aviche, Monte, Santander, Cantabria, 39012, España",Barrio La Torre,39012,Barrio La Torre,Barrio Aviche,Santander,Cantabria,Cantabria,España,es,,
img_16758.jpg,6.874330997467041,8.422460556030273,34801559,way,30062977,highway,tertiary,street,0,"Akpam, Oju, Benue, Nigeria",,,,,Akpam,Oju,Benue,Nigeria,ng,,
img_16759.jpg,-12.989957809448242,-74.20845794677734,3169992,way,37719857,highway,unclassified,street,0,"Macachacra, Iguain, Huanta, Ayacucho, Perú",,,,Macachacra,Iguain,Huanta,Ayacucho,Perú,pe,,
img_16760.jpg,-32.92350006103516,27.758325576782227,28967198,way,171441988,highway,tertiary,street,0,"Buffalo City Ward 17, Masibambane, Buffalo City Metropolitan Municipality, Eastern Cape, 5206, South Africa",,5206,,Buffalo City Ward 17,Masibambane,Buffalo City Metropolitan Municipality,Eastern Cape,South Africa,za,,
img_16761.jpg,56.28649520874024,43.58573913574219,185774976,way,141810314,highway,tertiary,street,0,"Нижегородское шоссе, Дзержинск, городской округ Дзержинск, Нижегородская область, Приволжский федеральный округ, 606000, Россия",Нижегородское шоссе,606000,,,Дзержинск,городской округ Дзержинск,Нижегородская область,Россия,ru,,
img_16762.jpg,-2.8226821422576904,106.41788482666016,29232131,way,808655447,highway,trunk,street,0,"31, Pergam, Bangka Selatan, Kepulauan Bangka Belitung, Sumatera, Indonesia",31,,,,Pergam,Bangka Selatan,Kepulauan Bangka Belitung,Indonesia,id,,
img_16763.jpg,9.82800579071045,-73.26106262207031,285066920,way,232573620,highway,residential,street,0,"Carrera 6A, Casacará, Agustín Codazzi, Cesar, RAP Caribe, Colombia",Carrera 6A,,,Casacará,Agustín Codazzi,,Cesar,Colombia,co,,
img_16764.jpg,40.5806999206543,35.66337203979492,190907323,way,15101994,highway,primary,street,0,"Çorum-Amasya yolu, Amasya, Yıldızköy, Amasya Merkez, Amasya, Karadeniz Bölgesi, Türkiye",Çorum-Amasya yolu,,,Amasya,Yıldızköy,Amasya Merkez,Amasya,Türkiye,tr,,
img_16765.jpg,38.502288818359375,-122.46736907958984,377896325,way,1041395927,place,house,house,0,"1301, Mitchell Drive, St. Helena, Napa County, California, 94574, United States",,94574,,,St. Helena,Napa County,California,United States,us,1301,Mitchell Drive
img_16766.jpg,50.1260986328125,14.423284530639648,122157255,way,581545415,amenity,parking,house,0,"Notečská, Troja, Praha, obvod Praha 8, Hlavní město Praha, Praha, 181 01, Česko",,181 01,Troja,Praha,Hlavní město Praha,,Praha,Česko,cz,,Notečská
img_16767.jpg,-32.06062698364258,115.95099639892578,28753148,way,4976828,highway,residential,street,0,"Gaze Court, Thornlie, City of Gosnells, Western Australia, 6108, Australia",Gaze Court,6108,,Thornlie,City of Gosnells,,Western Australia,Australia,au,,
img_16768.jpg,6.281027793884277,-75.56806945800781,285138639,way,174389072,highway,residential,street,0,"Calle 88, Aranjuez, Comuna 4 - Aranjuez, Perímetro Urbano Medellín, Medellín, Valle de Aburrá, Antioquia, RAP del Agua y la Montaña, 050006, Colombia",Calle 88,050006,Aranjuez,Comuna 4 - Aranjuez,Medellín,Valle de Aburrá,Antioquia,Colombia,co,,
img_16769.jpg,-50.3088493347168,-71.66329956054688,200233,way,29690273,highway,primary,street,0,"Ruta Nacional 40, Paso Río Bote, Lago Argentino, Santa Cruz, Argentina",Ruta Nacional 40,,,Paso Río Bote,,Lago Argentino,Santa Cruz,Argentina,ar,,
img_16770.jpg,41.90283584594727,12.345162391662598,73485612,way,1303890767,highway,secondary,street,0,"Via di Casal Selce, Municipio Roma XIII, Pantan Monastero, Roma, Roma Capitale, Lazio, 00166, Italia",Via di Casal Selce,00166,,Municipio Roma XIII,Roma,Roma Capitale,Lazio,Italia,it,,
img_16771.jpg,42.07071304321289,-5.849355220794678,272646604,way,95159286,highway,unclassified,street,0,"Villaferrueña, Zamora, Castilla y León, 49622, España",,49622,,,Villaferrueña,Zamora,Castilla y León,España,es,,
img_16772.jpg,23.325834274291992,120.29071044921876,214799199,node,11052910848,place,house,house,0,"69號, 南74, 上帝廳, 護鎮里, 新營區, 臺南市, 730, 臺灣",,730,上帝廳,護鎮里,臺南市,,,臺灣,tw,69號,南74
img_16773.jpg,51.86503219604492,-8.401138305664062,263508725,way,686482642,building,house,house,0,"Kabulonga, Garryduff Road, Garryduff, Douglas, Cork, County Cork, Munster, T12 ND82, Éire / Ireland",Kabulonga,T12 ND82,,Garryduff,Cork,County Cork,,Éire / Ireland,ie,,Garryduff Road
img_16774.jpg,48.26537322998047,14.330439567565918,119871703,way,751256211,highway,tertiary,street,0,"Stahlstraße, Industriegebiet-Hafen, Linz, Oberösterreich, 4020, Österreich",Stahlstraße,4020,,Industriegebiet-Hafen,Linz,,Oberösterreich,Österreich,at,,
img_16775.jpg,40.584228515625,-105.07754516601562,304658289,node,4387405565,craft,brewery,house,0,"Sippin Pretty, 102, West Olive Street, Fort Collins, Larimer County, Colorado, 80524, United States",Sippin Pretty,80524,,,Fort Collins,Larimer County,Colorado,United States,us,102,West Olive Street
img_16776.jpg,50.20406723022461,5.346014499664307,93675569,way,748871759,building,yes,house,0,"85, Aux Quatre Vents, Waha, Marche-en-Famenne, Luxembourg, Wallonie, 6900, België / Belgique / Belgien",,6900,,Waha,Marche-en-Famenne,Marche-en-Famenne,Luxembourg,België / Belgique / Belgien,be,85,Aux Quatre Vents
img_16777.jpg,33.54826354980469,-86.81816101074219,379358647,way,699322077,place,house,house,0,"2701, 25th Street North, North Birmingham, Birmingham, Jefferson County, Alabama, 35234, United States",,35234,,North Birmingham,Birmingham,Jefferson County,Alabama,United States,us,2701,25th Street North
img_16778.jpg,6.466819286346436,7.480499744415283,35058315,way,241654910,highway,unclassified,street,0,"Udeji Amechi Ukunonu, Ngwu-Agu Layout Trans-Ekulu, Enugu, Enugu North, Enugu, 400102, Nigeria",Udeji Amechi Ukunonu,400102,,Ngwu-Agu Layout Trans-Ekulu,Enugu,Enugu North,Enugu,Nigeria,ng,,
img_16779.jpg,14.481266021728516,-90.5354232788086,289281198,way,722107638,highway,residential,street,0,"1a Avenida, Colonia Santa Delfina, Villa Canales, Zona 1, Departamento de Guatemala, 01066, Guatemala",1a Avenida,01066,Colonia Santa Delfina,,Villa Canales,Zona 1,Departamento de Guatemala,Guatemala,gt,,
img_16780.jpg,54.96951675415039,82.93315887451172,201347253,way,306815412,highway,primary,street,0,"Бугринская Роща, Кировский район, городской округ Новосибирск, Новосибирская область, Сибирский федеральный округ, 630000, Россия",,630000,,Бугринская Роща,городской округ Новосибирск,,Новосибирская область,Россия,ru,,
img_16781.jpg,40.70692443847656,-74.00904083251953,330248285,way,907114738,railway,platform,house,0,"Wall Street, William Street, Whitehall, Financial District, Manhattan, New York County, City of New York, New York, 10038, United States",Wall Street,10038,Whitehall,Manhattan,City of New York,,New York,United States,us,,William Street
img_16782.jpg,59.25141525268555,18.12326431274414,153960998,way,23655591,highway,cycleway,street,0,"Knut Sjöbergs Väg, Sköndal, Farsta stadsdelsområde, Stockholm, Stockholms kommun, Stockholms län, 128 64, Sverige",Knut Sjöbergs Väg,128 64,,Sköndal,Stockholm,Stockholms län,,Sverige,se,,
img_16783.jpg,42.022010803222656,24.86068725585937,54540355,way,588456761,highway,secondary,street,0,"86, Асеновград, Пловдив, 4250, България",86,4250,,,Асеновград,Асеновград,Пловдив,България,bg,,
img_16784.jpg,63.43935775756836,27.995664596557617,155186385,way,697254562,highway,secondary,street,0,"Rautavaarantie, Korpinen, Varpaisjärvi, Lapinlahti, Ylä-Savon seutukunta, Pohjois-Savo, Manner-Suomi, Suomi / Finland",Rautavaarantie,,,Korpinen,Lapinlahti,,Pohjois-Savo,Suomi / Finland,fi,,
img_16785.jpg,52.48286437988281,-1.8914607763290403,258198388,way,231238152,highway,unclassified,street,0,"Jewellery Quarter, Park Central, Birmingham, West Midlands, England, B4 6FH, United Kingdom",,B4 6FH,,Jewellery Quarter,Birmingham,West Midlands,England,United Kingdom,gb,,
img_16786.jpg,35.959739685058594,-78.51807403564453,373929093,way,814414577,place,house,house,0,"167, Forestville Road, Forestville, Wake Forest, Wake County, North Carolina, 27587, United States",,27587,,Forestville,Wake Forest,Wake County,North Carolina,United States,us,167,Forestville Road
img_16787.jpg,50.54369735717773,5.691798686981201,95847157,way,562544571,highway,primary,street,0,"Rue de Liège, Gomzé-Andoumont, Sprimont, Liège, Wallonie, 4140, België / Belgique / Belgien",Rue de Liège,4140,,Gomzé-Andoumont,Sprimont,Liège,Liège,België / Belgique / Belgien,be,,
img_16788.jpg,32.19590377807617,-96.89881896972656,307051330,way,9989069,highway,tertiary,street,0,"Italy, Ellis County, Texas, 76551, United States",,76551,,,Italy,Ellis County,Texas,United States,us,,
img_16789.jpg,44.85545349121094,3.331974029541016,79421595,way,245007275,highway,secondary,street,0,"Place du Souvenir, Lotissement Ganigal Haut, Le Malzieu-Ville, Mende, Lozère, Occitanie, France métropolitaine, 48140, France",Place du Souvenir,48140,Lotissement Ganigal Haut,,Le Malzieu-Ville,Lozère,Occitanie,France,fr,,
img_16790.jpg,44.22550201416016,-80.55943298339844,55574310,way,67569924,place,house,house,0,"133573, Wilcox Lake Road, Grey Highlands, Grey County, Ontario, Canada",,,,,Grey Highlands,Grey County,Ontario,Canada,ca,133573,Wilcox Lake Road
img_16791.jpg,42.888092041015625,-7.699654102325439,269942341,way,186223652,highway,residential,street,0,"Rúa Lameliña, Meixaboi, Guntín de Pallares, Guntín, Lugo, Galicia, 27177, España",Rúa Lameliña,27177,,Meixaboi,Guntín de Pallares,Lugo,Galicia,España,es,,
img_16792.jpg,-33.91392135620117,150.82212829589844,19260613,way,26489716,highway,tertiary,street,0,"Seventeenth Avenue, Austral, Sydney, Liverpool City Council, New South Wales, 2179, Australia",Seventeenth Avenue,2179,,Austral,Sydney,,New South Wales,Australia,au,,
img_16793.jpg,52.84294128417969,6.078690528869629,143616966,node,2863301832,place,house,house,0,"19, Ericaweg, Overburen, Steggerda, Weststellingwerf, Fryslân, Nederland, 8395 TH, Nederland",,8395 TH,,Overburen,Steggerda,,Fryslân,Nederland,nl,19,Ericaweg
img_16794.jpg,-18.92344284057617,47.53194808959961,31264714,way,52638460,tourism,attraction,house,0,"Rova, Làlana Dokotera Ralarosy, Ankerakely, Ankadilalana, Antananarivo, Analamanga, Province d’Antananarivo, 101, Madagasikara / Madagascar",Rova,101,Ankerakely,Ankadilalana,Antananarivo,,Analamanga,Madagasikara / Madagascar,mg,,Làlana Dokotera Ralarosy
img_16795.jpg,-34.80849075317383,-56.22600173950195,16946051,node,944127065,place,house,house,0,"5732, Matto Grosso, Barrio Nuevo Colón, Colón, Montevideo, 12500, Uruguay",,12500,Barrio Nuevo Colón,Colón,Montevideo,,Montevideo,Uruguay,uy,5732,Matto Grosso
img_16796.jpg,22.293197631835938,114.17760467529295,219340760,relation,14947605,man_made,bridge,house,0,"星光大道 Avenue of Stars, 梳士巴利道 Salisbury Road, 尖沙咀東 East Tsim Sha Tsui, 尖沙咀 Tsim Sha Tsui, 油尖旺區 Yau Tsim Mong District, 九龍 Kowloon, 香港 Hong Kong, 999077, 中国",星光大道 Avenue of Stars,999077,尖沙咀東 East Tsim Sha Tsui,尖沙咀 Tsim Sha Tsui,九龍 Kowloon,,香港 Hong Kong,中国,cn,,梳士巴利道 Salisbury Road
img_16797.jpg,33.80946350097656,-80.9952163696289,385190233,way,12142846,place,house,house,0,"368, Old Sandy Run Road, Calhoun County, South Carolina, 29053, United States",,29053,,,,Calhoun County,South Carolina,United States,us,368,Old Sandy Run Road
img_16798.jpg,46.14595413208008,6.080557823181152,82674060,way,942387230,amenity,hospital,house,0,"Centre hospitalier Annecy-Genevois, Rue Amédée VIII de Savoie, Saint-Julien-en-Genevois, Haute-Savoie, Auvergne-Rhône-Alpes, France métropolitaine, 74160, France",Centre hospitalier Annecy-Genevois,74160,,,Saint-Julien-en-Genevois,Haute-Savoie,Auvergne-Rhône-Alpes,France,fr,,Rue Amédée VIII de Savoie
img_16799.jpg,51.44258880615234,-0.1930538713932037,261244271,way,1106402835,building,residential,house,0,"1-6, Dounesforth Gardens, Earlsfield, London Borough of Wandsworth, London, Greater London, England, SW18 4QP, United Kingdom",,SW18 4QP,,Earlsfield,London,Greater London,England,United Kingdom,gb,1-6,Dounesforth Gardens
img_16800.jpg,28.743408203125,77.07933044433594,226793587,way,422779371,highway,residential,street,0,"Sector 31, Rohini, Narela Tehsil, North Delhi, Delhi, 110085, India",,110085,Sector 31,Rohini,,Narela Tehsil,Delhi,India,in,,
img_16801.jpg,55.37835693359375,21.24349021911621,163082408,way,780654331,building,yes,house,0,"6, Bložių g., Stankiškiai, Kintų seniūnija, Šilutės rajono savivaldybė, Klaipėdos apskritis, 99361, Lietuva",,99361,,,Stankiškiai,Kintų seniūnija,Klaipėdos apskritis,Lietuva,lt,6,Bložių g.
img_16802.jpg,-26.96599197387696,31.00961875915528,30064167,way,77162113,highway,tertiary,street,0,"Inkhundla Gege, Shiselweni, eSwatini",,,,,Inkhundla Gege,,Shiselweni,eSwatini,sz,,
img_16803.jpg,56.8021354675293,-5.0587263107299805,253828131,way,348331475,highway,path,street,0,"Ben Nevis Mountain Path, Glen Nevis, Highland, Alba / Scotland, PH33 6SY, United Kingdom",Ben Nevis Mountain Path,PH33 6SY,,,Glen Nevis,Highland,Alba / Scotland,United Kingdom,gb,,
img_16804.jpg,25.11557960510254,121.53516387939452,213908714,relation,4791508,amenity,university,house,0,"臺北市立大學天母校區, 101, 忠誠路二段, 三玉里, 士林區, 蘭雅, 臺北市, 11153, 臺灣",臺北市立大學天母校區,11153,三玉里,士林區,臺北市,,,臺灣,tw,101,忠誠路二段
img_16805.jpg,35.80326461791992,-96.53009796142578,366369343,way,14751871,place,house,house,0,"24828, South 481st West Avenue, Creek County, Oklahoma, 74028, United States",,74028,,,,Creek County,Oklahoma,United States,us,24828,South 481st West Avenue
img_16806.jpg,44.46960067749024,20.314435958862305,57387535,node,12167952441,place,house,house,0,"92a, Космајска, Велики Црљени, Градска општина Лазаревац, Град Београд, Централна Србија, 11563, Србија",,11563,,Велики Црљени,Градска општина Лазаревац,Град Београд,Централна Србија,Србија,rs,92a,Космајска
img_16807.jpg,32.67274475097656,-115.52090454101562,371126008,way,10354575,place,house,house,0,"791, Linholm Avenue, Calexico, Imperial County, California, 92231, United States",,92231,,,Calexico,Imperial County,California,United States,us,791,Linholm Avenue
img_16808.jpg,-34.56440353393555,150.79904174804688,20738945,way,170586532,highway,primary,street,0,"Princes Highway, Albion Park Rail, Shellharbour City Council, New South Wales, 2527, Australia",Princes Highway,2527,,Albion Park Rail,Shellharbour City Council,,New South Wales,Australia,au,,
img_16809.jpg,31.845760345458984,-82.587158203125,359982922,way,9344665,place,house,house,0,"228, Alma Highway, Satilla, Jeff Davis County, Georgia, 31539, United States",,31539,,Satilla,,Jeff Davis County,Georgia,United States,us,228,Alma Highway
img_16810.jpg,50.53744125366211,11.297884941101074,125301322,way,155053991,highway,tertiary,street,0,"K 184, Großneundorf, Gräfenthal, Schiefergebirge, Landkreis Saalfeld-Rudolstadt, Thüringen, 98743, Deutschland",K 184,98743,,Großneundorf,Gräfenthal,Landkreis Saalfeld-Rudolstadt,Thüringen,Deutschland,de,,
img_16811.jpg,52.18498992919922,11.549812316894531,134179488,way,318709448,highway,motorway,street,0,"A 14, Dahlenwarsleben, Niedere Börde, Börde, Sachsen-Anhalt, 39326, Deutschland",A 14,39326,,Dahlenwarsleben,Dahlenwarsleben,Börde,Sachsen-Anhalt,Deutschland,de,,
img_16812.jpg,33.70656204223633,-116.28201293945312,295323878,way,340174466,highway,residential,street,0,"La Quinta Drive, La Quinta, Riverside County, California, 92235, United States",La Quinta Drive,92235,,,La Quinta,Riverside County,California,United States,us,,
img_16813.jpg,32.2325553894043,76.32499694824219,197385653,way,229259676,amenity,place_of_worship,house,0,"Dalai Lama temple, Potala Road, Kashmir House, McLeod Ganj, Dharamshala, Kangra, Himachal Pradesh, 176200, India",Dalai Lama temple,176200,Kashmir House,McLeod Ganj,Dharamshala,Dharamshala,Himachal Pradesh,India,in,,Potala Road
img_16814.jpg,40.63191986083984,-74.09183502197266,331153681,way,244172090,building,yes,house,0,"47, Silver Lake Road, Tompkinsville, Staten Island, Richmond County, City of New York, New York, 10301, United States",,10301,Tompkinsville,Richmond County,City of New York,,New York,United States,us,47,Silver Lake Road
img_16815.jpg,48.753814697265625,25.310550689697266,177056730,way,835082681,highway,primary,street,0,"вулиця Лесі Українки, Городенківська міська громада, Коломийський район, Івано-Франківська область, 78119, Україна",вулиця Лесі Українки,78119,,,Городенківська міська громада,Коломийський район,Івано-Франківська область,Україна,ua,,
img_16816.jpg,33.787261962890625,-118.33785247802734,295751444,way,443428664,building,house,house,0,"2733, Portobello Drive, Torrance, Los Angeles County, California, 90505, United States",,90505,,,Torrance,Los Angeles County,California,United States,us,2733,Portobello Drive
img_16817.jpg,47.08907699584961,39.7911376953125,189171446,way,539077999,highway,trunk,street,0,"«Дон», Ленинское сельское поселение, Аксайский район, Ростовская область, Южный федеральный округ, 346881, Россия",«Дон»,346881,,,Ленинское сельское поселение,Аксайский район,Ростовская область,Россия,ru,,
img_16818.jpg,12.8760986328125,-15.603846549987791,278103566,way,27374640,highway,primary,street,0,"N12 B2, Dar Salam, Communauté rurale de Koussy, Arrondissement de Diendé, Département de Sédhiou, Région de Sédhiou, Sénégal",N12 B2,,,Dar Salam,Communauté rurale de Koussy,Département de Sédhiou,Région de Sédhiou,Sénégal,sn,,
img_16819.jpg,34.6219482421875,135.51077270507812,247915008,way,177256882,highway,primary,street,0,"南港通, 帝塚山一丁目, 阿倍野区, 大阪市, 大阪府, 545-0011, 日本",南港通,545-0011,帝塚山一丁目,阿倍野区,大阪市,,大阪府,日本,jp,,
img_16820.jpg,-1.3615567684173584,-46.0882453918457,12473228,way,472979114,highway,unclassified,street,0,"Açutiua, São Lourenço, Carutapera, Região Geográfica Imediata de Governador Nunes Freire, Região Geográfica Intermediária de Santa Inês-Bacabal, Maranhão, Região Nordeste, Brasil",,,,Açutiua,Carutapera,Região Geográfica Intermediária de Santa Inês-Bacabal,Maranhão,Brasil,br,,
img_16821.jpg,43.37832260131836,-87.89716339111328,357532874,way,21543168,place,house,house,0,"1499, Maple Court, Westport Meadows, Port Washington, Ozaukee County, Wisconsin, 53074, United States",,53074,Westport Meadows,,Port Washington,Ozaukee County,Wisconsin,United States,us,1499,Maple Court
img_16822.jpg,34.47632598876953,135.93331909179688,253639073,way,59927613,highway,trunk,street,0,"国道166号, 大宇陀出新, 宇陀市, 奈良県, 633-2164, 日本",国道166号,633-2164,大宇陀出新,,宇陀市,,奈良県,日本,jp,,
img_16823.jpg,-5.412184238433838,105.55096435546876,28033365,way,664300650,highway,secondary,street,0,"Lampung Timur, Lampung, Sumatera, Indonesia",,,,,,Lampung Timur,Lampung,Indonesia,id,,
img_16824.jpg,49.85102081298828,18.53293800354004,172174181,node,1744232630,place,house,house,0,"223/3, Slámova, Fryštát, Karviná-město, Karviná, okres Karviná, Moravskoslezský kraj, Moravskoslezsko, 733 01, Česko",,733 01,Fryštát,Karviná-město,Karviná,Moravskoslezský kraj,Moravskoslezsko,Česko,cz,223/3,Slámova
img_16825.jpg,32.76582717895508,-97.32160949707033,385726472,way,10063051,place,house,house,0,"469, Gilvin Street, Fort Worth, Tarrant County, Texas, 76102, United States",,76102,,,Fort Worth,Tarrant County,Texas,United States,us,469,Gilvin Street
img_16826.jpg,-7.059847831726074,113.53379821777344,24908587,way,676945397,highway,residential,street,0,"Talagah, Pamekasan, Jawa Timur, Jawa, Indonesia",,,,Talagah,Pamekasan,,Jawa Timur,Indonesia,id,,
img_16827.jpg,52.60582733154297,-1.9191876649856567,257695167,way,14463150,highway,residential,street,0,"Sheraton Close, Leighswood, Aldridge, Walsall, West Midlands, England, WS9 8QD, United Kingdom",Sheraton Close,WS9 8QD,,Leighswood,Walsall,West Midlands,England,United Kingdom,gb,,
img_16828.jpg,36.64828872680664,138.1201629638672,242448312,way,133848790,highway,secondary,street,0,"小川長野線, 大字山田中, 小田切, 長野市, 長野県, 380-0941, 日本",小川長野線,380-0941,大字山田中,小田切,長野市,,長野県,日本,jp,,
img_16829.jpg,40.86635971069336,-73.86136627197266,332045546,node,9311338219,place,house,house,0,"2750, Boston Road, The Bronx, Bronx County, City of New York, New York, 10469, United States",,10469,,The Bronx,City of New York,,New York,United States,us,2750,Boston Road
img_16830.jpg,54.73535537719727,55.98179244995117,187797896,way,80878805,building,yes,house,0,"24, улица 8 Марта, Советский район, Уфа, городской округ Уфа, Башкортостан, Приволжский федеральный округ, 450000, Россия",,450000,,Советский район,Уфа,городской округ Уфа,Башкортостан,Россия,ru,24,улица 8 Марта
img_16831.jpg,45.21104431152344,13.59071922302246,71170718,way,650520333,leisure,resort,house,0,"Apartments Bellevue Plava Laguna, 10, Plava Laguna, Novo naselje, Poreč, Grad Poreč, Istarska županija, 52440, Hrvatska",Apartments Bellevue Plava Laguna,52440,Novo naselje,Poreč,Grad Poreč,Istarska županija,,Hrvatska,hr,10,Plava Laguna
img_16832.jpg,33.47282409667969,-86.81970977783203,319514669,way,971417492,building,yes,house,0,"513 At Valley Apartments, 513, Valley Avenue, Birmingham, Jefferson County, Alabama, 35209, United States",513 At Valley Apartments,35209,,,Birmingham,Jefferson County,Alabama,United States,us,513,Valley Avenue
img_16833.jpg,36.55686950683594,139.76666259765625,241108897,node,8823201719,amenity,restaurant,house,0,"餃子専門店 正嗣 鹿沼店, 栃木県鹿沼市緑町１丁目２−３５, 鹿沼駅西通り, 晃望台, 鹿沼市, 栃木県, 322-0025, 日本",餃子専門店 正嗣 鹿沼店,322-0025,晃望台,,鹿沼市,,栃木県,日本,jp,栃木県鹿沼市緑町１丁目２−３５,鹿沼駅西通り
img_16834.jpg,48.981353759765625,-0.3613847196102142,260524317,way,71886879,highway,tertiary,street,0,"D 156, Fontaine-Halbout, Acqueville, Cesny-les-Sources, Caen, Calvados, Normandie, France métropolitaine, 14220, France",D 156,14220,,Fontaine-Halbout,Cesny-les-Sources,Calvados,Normandie,France,fr,,
img_16835.jpg,55.142677307128906,61.44306182861328,187683085,way,53540594,building,apartments,house,0,"8, улица Гагарина, Ленинский район, Челябинск, Челябинская область, Уральский федеральный округ, 454010, Россия",,454010,,Ленинский район,Челябинск,,Челябинская область,Россия,ru,8,улица Гагарина
img_16836.jpg,44.80344772338867,20.47279167175293,57949245,way,395173991,building,apartments,house,0,"73, Крунска, Крунски венац, Београд (Врачар), Београд, Град Београд, Централна Србија, 11000, Србија",,11000,Крунски венац,Београд (Врачар),Београд,Град Београд,Централна Србија,Србија,rs,73,Крунска
img_16837.jpg,39.66411209106445,-79.40972900390625,325225092,way,48843966,highway,secondary,street,0,"Maple Street, Friendsville, Garrett County, Maryland, 21531, United States",Maple Street,21531,,,Friendsville,Garrett County,Maryland,United States,us,,
img_16838.jpg,45.06907272338867,19.217714309692383,57796655,node,11482310349,place,house,house,0,"189, Бранка Радичевића, Адашевци, Општина Шид, Сремски управни округ, Војводина, 22251, Србија",,22251,,Адашевци,Општина Шид,Сремски управни округ,Војводина,Србија,rs,189,Бранка Радичевића
img_16839.jpg,32.67570495605469,-97.4028091430664,308675171,way,152375894,amenity,parking,house,0,"Rock Quarry Road, Fort Worth, Tarrant County, Texas, 76132, United States",,76132,,,Fort Worth,Tarrant County,Texas,United States,us,,Rock Quarry Road
img_16840.jpg,6.264279842376709,0.1359862983226776,35284032,way,337490711,highway,trunk,street,0,"N2, Nnudu, Asuogyaman District, Eastern Region, Ghana",N2,,,,Nnudu,Asuogyaman District,Eastern Region,Ghana,gh,,
img_16841.jpg,51.086158752441406,-0.0304270461201667,260561727,way,509451081,building,house,house,0,"Blackland Farm House, Grinstead Lane, Forest Row, Wealden, East Sussex, England, RH19 4HP, United Kingdom",Blackland Farm House,RH19 4HP,,Forest Row,Wealden,East Sussex,England,United Kingdom,gb,,Grinstead Lane
img_16842.jpg,48.84041595458984,8.829349517822266,113262121,way,60193444,highway,motorway,street,0,"A 8, Friolzheim, Verwaltungsverband Heckengäu, Enzkreis, Baden-Württemberg, 71292, Deutschland",A 8,71292,,,Friolzheim,Enzkreis,Baden-Württemberg,Deutschland,de,,
img_16843.jpg,19.329662322998047,-99.29216003417967,290554462,way,683410575,highway,residential,street,0,"Privada Máximo Silva, Santa Rosa, Cuajimalpa de Morelos, Ciudad de México, 05610, México",Privada Máximo Silva,05610,,Santa Rosa,Ciudad de México,,,México,mx,,
img_16844.jpg,36.65396881103516,138.28665161132812,241753185,way,165781088,highway,unclassified,street,0,"大字高梨, 須坂市, 長野県, 382-0086, 日本",,382-0086,大字高梨,,須坂市,,長野県,日本,jp,,
img_16845.jpg,39.32488250732422,-9.353507995605469,276501747,way,104571519,highway,residential,street,0,"Rua da Horta, Consolação, Atouguia da Baleia, Peniche, Leiria, 2525-431, Portugal",Rua da Horta,2525-431,,Consolação,Peniche,Leiria,,Portugal,pt,,
img_16846.jpg,40.53667068481445,140.52908325195312,250068273,way,111795229,highway,unclassified,street,0,"石川, 弘前市, 青森県, 036-8127, 日本",,036-8127,,石川,弘前市,,青森県,日本,jp,,
img_16847.jpg,39.70444107055664,-86.10546875,315350225,way,217384102,highway,motorway,street,0,"USS Indianapolis Memorial Highway, Indianapolis, Marion County, Indiana, 46107, United States",USS Indianapolis Memorial Highway,46107,,,Indianapolis,Marion County,Indiana,United States,us,,
img_16848.jpg,46.07769775390625,14.512176513671877,61839798,way,1159252226,highway,primary,street,0,"Dunajska cesta, Četrtna skupnost Bežigrad, Ljubljana, Upravna Enota Ljubljana, 1131, Slovenija",Dunajska cesta,1131,,Četrtna skupnost Bežigrad,Ljubljana,,,Slovenija,si,,
img_16849.jpg,46.00118637084961,-102.6407699584961,371806152,way,9566461,place,house,house,0,"198, Adams Avenue, Hettinger, Adams County, North Dakota, 58639, United States",,58639,,,Hettinger,Adams County,North Dakota,United States,us,198,Adams Avenue
img_16850.jpg,28.70138168334961,77.1798095703125,228129507,way,78176001,highway,residential,street,0,"GT Karnal Road Industrial Area, Model Town Tehsil, North Delhi, Delhi, 110052, India",,110052,GT Karnal Road Industrial Area,GT Karnal Road Industrial Area,,Model Town Tehsil,Delhi,India,in,,
img_16851.jpg,56.83978271484375,-2.450217962265014,253589929,way,1194082457,highway,trunk,street,0,"Laurencekirk Bypass, Laurencekirk, Aberdeenshire, Alba / Scotland, AB30 1LF, United Kingdom",Laurencekirk Bypass,AB30 1LF,,,Laurencekirk,Aberdeenshire,Alba / Scotland,United Kingdom,gb,,
img_16852.jpg,49.03480911254883,2.471043348312378,89066164,way,18893745,highway,residential,street,0,"Rue Bir Hakeim, Goussainville, Sarcelles, Val-d'Oise, Île-de-France, France métropolitaine, 95190, France",Rue Bir Hakeim,95190,,,Goussainville,Val-d'Oise,Île-de-France,France,fr,,
img_16853.jpg,28.148588180541992,-80.6521987915039,359475279,way,10778870,place,house,house,0,"1832, Matte Drive, Melbourne, Brevard County, Florida, 32935, United States",,32935,,,Melbourne,Brevard County,Florida,United States,us,1832,Matte Drive
img_16854.jpg,38.09922790527344,13.309948921203612,48162437,way,41744886,highway,secondary,street,0,"Via Umberto Maddalena, Boccadifalco, IV Circoscrizione, Palermo, Sicilia, 90131, Italia",Via Umberto Maddalena,90131,Boccadifalco,IV Circoscrizione,Palermo,Palermo,Sicilia,Italia,it,,
img_16855.jpg,39.9872932434082,-104.8005828857422,304178433,way,956892131,shop,car_parts,house,0,"NAPA Auto Parts, 68, North 18th Avenue, Brighton, Adams County, Colorado, 80601, United States",NAPA Auto Parts,80601,,,Brighton,Adams County,Colorado,United States,us,68,North 18th Avenue
img_16856.jpg,-0.2703089118003845,36.18098068237305,33205463,way,133107210,highway,residential,street,0,"Tabuga, Dundori ward, Bahati, Nakuru, Rift Valley, Kenya",,,,Tabuga,Dundori ward,Bahati,Nakuru,Kenya,ke,,
img_16857.jpg,51.449832916259766,-1.454751968383789,261817743,way,486885200,highway,secondary,street,0,"Ermin Street, Wickfield, Great Shefford, West Berkshire, England, RG17 7AL, United Kingdom",Ermin Street,RG17 7AL,,Wickfield,Great Shefford,West Berkshire,England,United Kingdom,gb,,
img_16858.jpg,51.915977478027344,4.227427005767822,97585967,way,54052865,amenity,parking,house,0,"Vinkseweg, Rozenburg, Rotterdam, Zuid-Holland, Nederland, 3181 HT, Nederland",,3181 HT,,,Rozenburg,,Zuid-Holland,Nederland,nl,,Vinkseweg
img_16859.jpg,29.72535514831543,-95.54393005371094,280448829,way,145336349,amenity,school,house,0,"Sneed Elementary School, 9855, Pagewood Lane, Houston, Harris County, Texas, 77042, United States",Sneed Elementary School,77042,,,Houston,Harris County,Texas,United States,us,9855,Pagewood Lane
img_16860.jpg,28.59561920166016,77.08665466308594,224637422,way,687330298,highway,residential,street,0,"Palam, Dwarka Tehsil, South West Delhi, Delhi, 110045, India",,110045,,Palam,,Dwarka Tehsil,Delhi,India,in,,
img_16861.jpg,46.12430191040039,3.4259185791015625,86203065,node,12164360594,place,house,house,0,"36, Rue Salignat, Vichy, Allier, Auvergne-Rhône-Alpes, France métropolitaine, 03200, France",,03200,,,Vichy,Allier,Auvergne-Rhône-Alpes,France,fr,36,Rue Salignat
img_16862.jpg,53.68328475952149,-1.808630108833313,256982110,way,589014855,building,house,house,0,"95, Dewsbury Road, Lower Edge, Brighouse, Calderdale, West Yorkshire, England, HD6 3QE, United Kingdom",,HD6 3QE,,Lower Edge,Calderdale,West Yorkshire,England,United Kingdom,gb,95,Dewsbury Road
img_16863.jpg,41.13556671142578,24.89458465576172,53336462,way,142866159,highway,tertiary,street,0,"Κλεμανσώ, Ξάνθη, Δημοτική Ενότητα Ξάνθης, Δήμος Ξάνθης, Περιφερειακή Ενότητα Ξάνθης, Περιφέρεια Ανατολικής Μακεδονίας και Θράκης, Αποκεντρωμένη Διοίκηση Μακεδονίας - Θράκης, 671 00, Ελλάς",Κλεμανσώ,671 00,,Ξάνθη,Δημοτική Ενότητα Ξάνθης,Περιφερειακή Ενότητα Ξάνθης,Αποκεντρωμένη Διοίκηση Μακεδονίας - Θράκης,Ελλάς,gr,,
img_16864.jpg,16.9144229888916,-99.99374389648438,286646254,way,866695804,highway,residential,street,0,"Calle 4 de Enero, Acapulco, Acapulco de Juárez, Guerrero, 39300, México",Calle 4 de Enero,39300,,,Acapulco,Acapulco de Juárez,Guerrero,México,mx,,
img_16865.jpg,57.345489501953125,61.88540649414063,187580768,way,764103401,building,house,house,0,"2, Уральская улица, Микрорайон, Артёмовский, Артёмовский городской округ, Свердловская область, Уральский федеральный округ, 623780, Россия",,623780,,Микрорайон,Артёмовский,Артёмовский городской округ,Свердловская область,Россия,ru,2,Уральская улица
img_16866.jpg,52.86781311035156,4.933674812316895,146790775,way,6639071,highway,unclassified,street,0,"Amstelmeerweg, Slootdorp, Hollands Kroon, Noord-Holland, Nederland, 1774 NP, Nederland",Amstelmeerweg,1774 NP,,,Slootdorp,,Noord-Holland,Nederland,nl,,
img_16867.jpg,51.40174102783203,-0.1114359274506568,261792647,way,8415813,highway,residential,street,0,"Totton Road, Thornton Heath, London Borough of Croydon, London, Greater London, England, CR7 7QS, United Kingdom",Totton Road,CR7 7QS,,Thornton Heath,London,Greater London,England,United Kingdom,gb,,
img_16868.jpg,-38.20148468017578,144.328369140625,17994834,way,197115642,highway,secondary,street,0,"Pioneer Road, Grovedale, Geelong, City of Greater Geelong, Victoria, 3216, Australia",Pioneer Road,3216,,Grovedale,Geelong,,Victoria,Australia,au,,
img_16869.jpg,33.94145965576172,-84.47943115234375,315890409,way,286685579,building,house,house,0,"2516, Freydale Road Southeast, Marietta, Cobb County, Georgia, 30067, United States",,30067,,,Marietta,Cobb County,Georgia,United States,us,2516,Freydale Road Southeast
img_16870.jpg,1.3089137077331543,103.78257751464844,236768696,way,652536000,highway,primary,street,0,"Commonwealth Avenue West, Rochester Hill, Queenstown, Southwest, Singapore, 130018, Singapore",Commonwealth Avenue West,130018,Rochester Hill,Queenstown,Singapore,,,Singapore,sg,,
img_16871.jpg,50.38896942138672,14.437132835388184,123041122,node,1368103742,place,house,house,0,"93, Nádražní, Dolní Beřkovice, okres Mělník, Střední Čechy, 277 01, Česko",,277 01,,Dolní Beřkovice,Dolní Beřkovice,,Střední Čechy,Česko,cz,93,Nádražní
img_16872.jpg,30.323728561401367,-97.70518493652344,294178550,node,3847291975,place,house,house,0,"6121, I 35 Frontage Road, Austin, Travis County, Texas, 78752, United States",,78752,,,Austin,Travis County,Texas,United States,us,6121,I 35 Frontage Road
img_16873.jpg,22.176898956298828,92.18761444091795,233787850,way,141136700,highway,trunk,street,0,"Chittagong Bandarban Highway, বান্দরবান, বান্দরবান পার্বত্য জেলা, চট্টগ্রাম বিভাগ, 3163, বাংলাদেশ",Chittagong Bandarban Highway,3163,,,বান্দরবান,বান্দরবান পার্বত্য জেলা,চট্টগ্রাম বিভাগ,বাংলাদেশ,bd,,
img_16874.jpg,41.80656814575195,-72.92313385009766,327682134,node,10048822934,place,house,house,0,"44, Burlington Avenue, Burlington, Northwest Hills Planning Region, Connecticut, 06013, United States",,06013,,,Burlington,Northwest Hills Planning Region,Connecticut,United States,us,44,Burlington Avenue
img_16875.jpg,56.23716735839844,60.923095703125,185609843,way,151392235,highway,primary,street,0,"65К-2501000, Андреевка, Никольское, Сысертский городской округ, Свердловская область, Уральский федеральный округ, Россия",65К-2501000,,,Андреевка,Никольское,Сысертский городской округ,Свердловская область,Россия,ru,,
img_16876.jpg,-12.11129379272461,-76.98136901855469,3408424,way,111908053,highway,tertiary,street,0,"Avenida del Sur, Bella Luz, Santiago de Surco, Lima, Lima Metropolitana, Lima, 51132, Perú",Avenida del Sur,51132,Bella Luz,Santiago de Surco,Lima Metropolitana,,Lima,Perú,pe,,
img_16877.jpg,11.333513259887695,76.81207275390625,235707057,way,452293150,highway,trunk,street,0,"Coonoor-Mettupalayam Rd, Marapalam, Kurumbadi, Coonoor, Nilgiris, Tamil Nadu, 643103, India",Coonoor-Mettupalayam Rd,643103,,Marapalam,Kurumbadi,Coonoor,Tamil Nadu,India,in,,
img_16878.jpg,-35.25210952758789,149.1144561767578,20239806,way,4843429,highway,residential,street,0,"Boobialla Street, O'Connor, Canberra, District of Canberra Central, Australian Capital Territory, 2602, Australia",Boobialla Street,2602,,O'Connor,Canberra,District of Canberra Central,Australian Capital Territory,Australia,au,,
img_16879.jpg,52.36730194091797,4.890181064605713,145288624,node,2724039000,place,house,house,0,"439, Singel, Centrum, Amsterdam, Noord-Holland, Nederland, 1012 WP, Nederland",,1012 WP,,Centrum,Amsterdam,,Noord-Holland,Nederland,nl,439,Singel
img_16880.jpg,-25.668739318847656,30.245359420776367,29890672,way,766228537,highway,residential,street,0,"eNtokozweni (Machadodorp), Emakhazeni Ward 6, Machadodorp, Emakhazeni Local Municipality, Nkangala, Mpumalanga, South Africa",,,eNtokozweni (Machadodorp),Emakhazeni Ward 6,Emakhazeni Local Municipality,Nkangala,Mpumalanga,South Africa,za,,
img_16881.jpg,48.80385208129883,2.1796531677246094,88295615,node,5838954534,place,house,house,0,"30, Avenue du Parc, Le Haras, Viroflay, Versailles, Yvelines, Île-de-France, France métropolitaine, 78220, France",,78220,Le Haras,,Viroflay,Yvelines,Île-de-France,France,fr,30,Avenue du Parc
img_16882.jpg,-36.3175048828125,141.4242706298828,17894145,way,250088282,highway,tertiary,street,0,"Diapur - Miram Road, Nhill, Shire of Hindmarsh, Victoria, 3418, Australia",Diapur - Miram Road,3418,,,Nhill,,Victoria,Australia,au,,
img_16883.jpg,44.47096633911133,26.05252265930176,54642055,node,1860063350,place,house,house,0,"168A, Bulevardul Ion Mihalache, 1 Mai, Sector 1, București, 012093, România",,012093,,1 Mai,București,,,România,ro,168A,Bulevardul Ion Mihalache
img_16884.jpg,55.49054336547852,-3.695659875869751,253839124,way,4953357,highway,motorway,street,0,"A74(M), Southwood Farm, Abington, South Lanarkshire, Alba / Scotland, ML12 6RX, United Kingdom",A74(M),ML12 6RX,,Southwood Farm,Abington,South Lanarkshire,Alba / Scotland,United Kingdom,gb,,
img_16885.jpg,-32.715614318847656,18.80879211425781,29235444,way,890135625,highway,secondary,street,0,"R365, Bergrivier Ward 5, Bergrivier Local Municipality, West Coast District Municipality, Western Cape, South Africa",R365,,,Bergrivier Ward 5,Bergrivier Local Municipality,West Coast District Municipality,Western Cape,South Africa,za,,
img_16886.jpg,35.227561950683594,-80.84255981445312,313617571,way,341639856,building,commercial,house,0,"101 Independence Center, 101, North Tryon Street, Uptown, Charlotte, Mecklenburg County, North Carolina, 28202, United States",101 Independence Center,28202,,Uptown,Charlotte,Mecklenburg County,North Carolina,United States,us,101,North Tryon Street
img_16887.jpg,35.46487045288086,133.27789306640625,247803672,way,132987906,highway,tertiary,street,0,"富益団地, 米子市, 鳥取県, 683-0854, 日本",,683-0854,富益団地,,米子市,,鳥取県,日本,jp,,
img_16888.jpg,-32.34433364868164,115.85660552978516,29067972,way,563123093,highway,unclassified,street,0,"Baldivis, City of Rockingham, Western Australia, 6171, Australia",,6171,,Baldivis,City of Rockingham,,Western Australia,Australia,au,,
img_16889.jpg,64.1216812133789,-21.784122467041016,255785747,way,25170932,highway,trunk,street,0,"Suðurlandsvegur, Hálsar, Árbær, Reykjavíkurborg, Höfuðborgarsvæðið, 110, Ísland",Suðurlandsvegur,110,Hálsar,Árbær,Reykjavíkurborg,Höfuðborgarsvæðið,,Ísland,is,,
img_16890.jpg,50.05390548706055,19.953781127929688,169933573,way,216945214,highway,residential,street,0,"Aleja Ignacego Daszyńskiego, Grzegórzki, Kraków, województwo małopolskie, 31-535, Polska",Aleja Ignacego Daszyńskiego,31-535,Grzegórzki,Grzegórzki,Kraków,,województwo małopolskie,Polska,pl,,
img_16891.jpg,47.630859375,-65.66741943359375,336429329,way,890800810,amenity,fuel,house,0,"Mobil, 700, Saint Peter Avenue, City of Bathurst, Bathurst Parish, Comté de Gloucester, New Brunswick / Nouveau-Brunswick, E2A 2Y7, Canada",Mobil,E2A 2Y7,,,City of Bathurst,Bathurst Parish,New Brunswick / Nouveau-Brunswick,Canada,ca,700,Saint Peter Avenue
img_16892.jpg,1.2383846044540403,101.19891357421876,236688376,way,1145559153,highway,residential,street,0,"Duri, Kecamatan Mandau, Bengkalis, Riau, Sumatera, 38884, Indonesia",,38884,,,Duri,Bengkalis,Riau,Indonesia,id,,
img_16893.jpg,43.4011116027832,-80.6868667602539,341489696,way,260863632,amenity,school,house,0,"Sir Adam Beck Public School, 1140, Snyder's Road West, Baden, Wilmot, Region of Waterloo, Ontario, N3A 0A8, Canada",Sir Adam Beck Public School,N3A 0A8,,Baden,Wilmot,Region of Waterloo,Ontario,Canada,ca,1140,Snyder's Road West
img_16894.jpg,-27.407474517822266,152.95640563964844,23476586,node,6255280953,place,house,house,0,"2, Duggan Street, Grovely, Keperra, Brisbane City, Queensland, 4054, Australia",,4054,Grovely,Keperra,Brisbane City,,Queensland,Australia,au,2,Duggan Street
img_16895.jpg,48.852317810058594,2.262436866760254,88123764,node,1004505709,place,house,house,0,"47, Boulevard de Montmorency, Quartier d'Auteuil, Paris 16e Arrondissement, Paris, Île-de-France, France métropolitaine, 75016, France",,75016,Quartier d'Auteuil,Paris,Paris,,Île-de-France,France,fr,47,Boulevard de Montmorency
img_16896.jpg,52.60739517211914,-7.881858825683594,255446341,way,368477107,highway,secondary,street,0,"R660, Gaile, The Municipal District of Thurles, County Tipperary, Munster, Éire / Ireland",R660,,,Gaile,The Municipal District of Thurles,County Tipperary,,Éire / Ireland,ie,,
img_16897.jpg,42.119049072265625,19.1264705657959,51951467,way,751561783,highway,secondary,street,0,"R-28, Sustaš-dio, Sustaš, Opština Bar, 85354, Crna Gora / Црна Гора",R-28,85354,,Sustaš-dio,Sustaš,Opština Bar,,Crna Gora / Црна Гора,me,,
img_16898.jpg,43.481971740722656,-85.9597396850586,368009133,way,17919945,place,house,house,0,"4011, South Stone Road, Dayton Township, Newaygo County, Michigan, 49412, United States",,49412,,,Dayton Township,Newaygo County,Michigan,United States,us,4011,South Stone Road
img_16899.jpg,59.32966232299805,17.91489028930664,154232899,way,23516640,highway,residential,street,0,"Nockeby backe, Nockebyhov, Bromma stadsdelsområde, Stockholm, Stockholms kommun, Stockholms län, 168 39, Sverige",Nockeby backe,168 39,,Nockebyhov,Stockholm,Stockholms län,,Sverige,se,,
img_16900.jpg,46.41822052001953,-120.2689208984375,357804214,way,379956968,place,house,house,0,"11669, Yakima Valley Highway, Zillah, Yakima County, Washington, 98953, United States",,98953,,,Zillah,Yakima County,Washington,United States,us,11669,Yakima Valley Highway
img_16901.jpg,39.28165817260742,-77.02313232421875,359963394,way,182736046,place,house,house,0,"14741, Burntwoods Road, Glenwood, Howard County, Maryland, 21738, United States",,21738,,Glenwood,,Howard County,Maryland,United States,us,14741,Burntwoods Road
img_16902.jpg,48.226837158203125,16.471769332885742,174439999,way,355785331,building,yes,house,0,"21, Bodmergasse, KG Aspern, Donaustadt, Wien, 1220, Österreich",,1220,,KG Aspern,Wien,,,Österreich,at,21,Bodmergasse
img_16903.jpg,53.60376739501953,-2.159965753555298,257887844,way,154475650,highway,unclassified,street,0,"Sudden, Castleton, Rochdale, Greater Manchester, England, OL11 1QL, United Kingdom",,OL11 1QL,,Sudden,Rochdale,Greater Manchester,England,United Kingdom,gb,,
img_16904.jpg,55.74551773071289,37.671043395996094,181269187,way,67251886,building,yes,house,0,"15, Школьная улица, Таганский район, Москва, Центральный федеральный округ, 109544, Россия",,109544,,Таганский район,Москва,,Москва,Россия,ru,15,Школьная улица
img_16905.jpg,38.13771438598633,-0.9318100214004515,272850223,node,10278779067,place,house,house,0,"29, Avenida de Alicante, San Carlos, Redován, el Baix Segura / La Vega Baja del Segura, Alacant / Alicante, Comunitat Valenciana, 03370, España",,03370,San Carlos,,Redován,el Baix Segura / La Vega Baja del Segura,Comunitat Valenciana,España,es,29,Avenida de Alicante
img_16906.jpg,40.09132385253906,-74.94670867919922,382591046,way,12319542,place,house,house,0,"2704, June Avenue, Eddington Park, Bensalem Township, Bucks County, Pennsylvania, 19020, United States",,19020,,Eddington Park,Bensalem Township,Bucks County,Pennsylvania,United States,us,2704,June Avenue
img_16907.jpg,1.5047385692596436,103.767578125,236418698,way,1323813495,highway,residential,street,0,"Jalan Bunga Kemboja, Kampung Dato' Hajah Hasnah Ahmad, Johor Bahru, Johor, 81100, Malaysia",Jalan Bunga Kemboja,81100,,Kampung Dato' Hajah Hasnah Ahmad,Johor Bahru,Johor Bahru,Johor,Malaysia,my,,
img_16908.jpg,12.673434257507324,77.82781982421875,235028511,way,128840916,highway,unclassified,street,0,"Hosur, Krishnagiri, Tamil Nadu, 635110, India",,635110,,,Hosur,Hosur,Tamil Nadu,India,in,,
img_16909.jpg,32.5919189453125,-95.20036315917967,360825961,way,21393168,place,house,house,0,"200, Francis Street, Hawkins, Wood County, Texas, 75765, United States",,75765,,,Hawkins,Wood County,Texas,United States,us,200,Francis Street
img_16910.jpg,-34.1700553894043,-58.95594024658203,14915184,way,321682265,place,house,house,0,"633, Avenida Florentino Ameghino, Campana, Partido de Campana, Buenos Aires, 2804, Argentina",,2804,,,Campana,Partido de Campana,Buenos Aires,Argentina,ar,633,Avenida Florentino Ameghino
img_16911.jpg,42.0721435546875,-72.61432647705078,327158496,way,211793784,building,yes,house,0,"14, Albert Street, Agawam, Hampden County, Massachusetts, 01001, United States",,01001,,,Agawam,Hampden County,Massachusetts,United States,us,14,Albert Street
img_16912.jpg,27.17182731628418,78.0428237915039,228714048,way,27044943,tourism,attraction,house,0,"Taj Mahal Mughal Garden, Taj East Gate Road, Taj Ganj, Agra, Uttar Pradesh, 282004, India",Taj Mahal Mughal Garden,282004,,Taj Ganj,Agra,Agra,Uttar Pradesh,India,in,,Taj East Gate Road
img_16913.jpg,55.95901107788086,-3.185758352279663,253997766,node,2949465859,place,house,house,0,"3, Gayfield Square, Gayfield, New Town/Broughton, City of Edinburgh, Alba / Scotland, EH1 3NW, United Kingdom",,EH1 3NW,Gayfield,New Town/Broughton,City of Edinburgh,,Alba / Scotland,United Kingdom,gb,3,Gayfield Square
img_16914.jpg,48.2573127746582,14.29114818572998,120000076,way,29184638,highway,primary,street,0,"Salzburger Straße, Wegscheid, Neue Heimat, Linz, Oberösterreich, 4030, Österreich",Salzburger Straße,4030,Wegscheid,Neue Heimat,Linz,,Oberösterreich,Österreich,at,,
img_16915.jpg,-27.53248405456543,26.45488929748535,30360646,way,39483984,highway,primary,street,0,"R59, Nala Ward 10, Bothaville, Nala Local Municipality, Lejweleputswa District Municipality, Free State, South Africa",R59,,,Nala Ward 10,Nala Local Municipality,Lejweleputswa District Municipality,Free State,South Africa,za,,
img_16916.jpg,43.05719757080078,44.62020492553711,192606200,way,120396830,building,yes,house,0,"69/1, Владикавказская улица, Северо-Западный район, Владикавказ, городской округ Владикавказ, Северная Осетия — Алания, Северо-Кавказский федеральный округ, 362043, Россия",,362043,,Северо-Западный район,Владикавказ,городской округ Владикавказ,Северная Осетия — Алания,Россия,ru,69/1,Владикавказская улица
img_16917.jpg,45.467132568359375,-73.8299789428711,341886773,way,1056118403,highway,tertiary,street,0,"Boulevard Brunswick, Pointe-Claire, Agglomération de Montréal, Montréal (région administrative), Québec, H9R 5K3, Canada",Boulevard Brunswick,H9R 5K3,,,Pointe-Claire,Agglomération de Montréal,Québec,Canada,ca,,
img_16918.jpg,45.50835418701172,8.993021011352539,67895595,way,366928824,highway,tertiary,street,0,"Via per Arluno, Cascina Comune, Cascina San Giovanni, Pregnana Milanese, Milano, Lombardia, 20008, Italia",Via per Arluno,20008,Cascina Comune,Cascina San Giovanni,Pregnana Milanese,Milano,Lombardia,Italia,it,,
img_16919.jpg,39.86793899536133,-84.31319427490234,368561454,way,132910074,place,house,house,0,"160, Millwood Village Drive, Englewood, Montgomery County, Ohio, 45315, United States",,45315,,,Englewood,Montgomery County,Ohio,United States,us,160,Millwood Village Drive
img_16920.jpg,6.456908702850342,3.4150094985961914,36816098,way,129725822,highway,residential,street,0,"Ojo Lane, Dolphin Estate, Ikoyi, Eti Osa, Lagos, 101222, Nigeria",Ojo Lane,101222,Dolphin Estate,Ikoyi,,Eti Osa,Lagos,Nigeria,ng,,
img_16921.jpg,47.28842544555664,26.37491798400879,55859081,way,363096266,highway,primary,street,0,"DN15C, Poiana, Brusturi, Neamț, 617106, România",DN15C,617106,,Poiana,Brusturi,Neamț,,România,ro,,
img_16922.jpg,40.33929061889648,-7.450978755950928,271233965,way,179416100,highway,tertiary,street,0,"EM 501, Atalaia, Teixoso e Sarzedo, Covilhã, Castelo Branco, 6200-680, Portugal",EM 501,6200-680,,Atalaia,Covilhã,Castelo Branco,,Portugal,pt,,
img_16923.jpg,16.6839656829834,102.14483642578124,221333421,way,179265392,highway,primary,street,0,"228, บ้านท่าช้าง, นาจาน, จังหวัดขอนแก่น, ประเทศไทย",228,,,,บ้านท่าช้าง,,จังหวัดขอนแก่น,ประเทศไทย,th,,
img_16924.jpg,36.45998764038086,-94.2559051513672,309510377,way,12756043,highway,tertiary,street,0,"Chelsea Road, Dug Hill, Bella Vista, Benton County, Arkansas, 72715, United States",Chelsea Road,72715,,Dug Hill,Bella Vista,Benton County,Arkansas,United States,us,,
img_16925.jpg,56.137786865234375,8.954410552978516,153659023,node,343910368,place,house,house,0,"3, Sverigesvej, Herning, Herning Kommune, Region Midtjylland, 7400, Danmark",,7400,,,Herning,,Region Midtjylland,Danmark,dk,3,Sverigesvej
img_16926.jpg,39.44884490966797,-75.69217681884766,318287805,way,997545193,amenity,school,house,0,"Middletown Odessa Road, Middletown, New Castle County, Delaware, 19709, United States",,19709,,,Middletown,New Castle County,Delaware,United States,us,,Middletown Odessa Road
img_16927.jpg,48.28590774536133,16.4414119720459,173528228,way,163011057,highway,secondary,street,0,"Gerasdorfer Straße, KG Leopoldau, Floridsdorf, Wien, 1210, Österreich",Gerasdorfer Straße,1210,,KG Leopoldau,Wien,,,Österreich,at,,
img_16928.jpg,47.06137466430664,-0.8663361072540283,267223739,node,6124678201,place,house,house,0,"9, Rue du Château Roquet, Cholet, Maine-et-Loire, Pays de la Loire, France métropolitaine, 49300, France",,49300,,Cholet,Cholet,Maine-et-Loire,Pays de la Loire,France,fr,9,Rue du Château Roquet
img_16929.jpg,36.79536056518555,10.18206024169922,47441445,node,3147276037,place,house,house,0,"29, Avenue de Carthage, بحيرة تونس, معتمدية باب بحر, تونس, ولاية تونس, 1151, تونس",,1151,,بحيرة تونس,تونس,,ولاية تونس,تونس,tn,29,Avenue de Carthage
img_16930.jpg,-26.148283004760746,28.2982120513916,30164132,way,39952390,highway,residential,street,0,"Jade Street, North Villa, Ekurhuleni Ward 23, City of Ekurhuleni Metropolitan Municipality, Gauteng, 1518, South Africa",Jade Street,1518,North Villa,Ekurhuleni Ward 23,,City of Ekurhuleni Metropolitan Municipality,Gauteng,South Africa,za,,
img_16931.jpg,56.19683456420898,-3.168111085891724,255722591,way,9227558,highway,tertiary,street,0,"North Street, Auchmuty, Glenrothes, Fife, Alba / Scotland, KY7 5SE, United Kingdom",North Street,KY7 5SE,,Auchmuty,Glenrothes,Fife,Alba / Scotland,United Kingdom,gb,,
img_16932.jpg,36.0248908996582,136.22775268554688,242348479,way,154460588,highway,tertiary,street,0,"上莇生田町, 福井市, 福井県, 918-8116, 日本",,918-8116,上莇生田町,,福井市,,福井県,日本,jp,,
img_16933.jpg,38.58140563964844,-90.24491119384766,309257915,way,761810014,amenity,bank,house,0,"PNC Bank, 4131, South Grand Boulevard, Dutchtown, Saint Louis, Missouri, 63111, United States",PNC Bank,63111,Dutchtown,,Saint Louis,,Missouri,United States,us,4131,South Grand Boulevard
img_16934.jpg,59.93328475952149,30.343599319458008,155830978,relation,5537267,man_made,bridge,house,0,"Аничков мост, набережная реки Фонтанки, Владимирский округ, Санкт-Петербург, Северо-Западный федеральный округ, 190000, Россия",Аничков мост,190000,,Владимирский округ,Санкт-Петербург,,Санкт-Петербург,Россия,ru,,набережная реки Фонтанки
img_16935.jpg,36.78071212768555,-76.14813232421875,322700549,way,837236034,highway,tertiary,street,0,"Pleasant Valley Road, Virginia Beach, Virginia, 23464, United States",Pleasant Valley Road,23464,,,Virginia Beach,,Virginia,United States,us,,
img_16936.jpg,25.592269897460938,83.83544158935547,225665404,way,232072626,highway,trunk,street,0,"NH31, Mohammadabad, Ghazipur, Uttar Pradesh, 233227, India",NH31,233227,,,Mohammadabad,Mohammadabad,Uttar Pradesh,India,in,,
img_16937.jpg,14.44503116607666,-16.996381759643555,277004114,way,489275510,amenity,clinic,house,0,"Urgences 24, 79E, Route de Saly, Saly Portudal, Département de M'bour, Région de Thiès, 23002, Sénégal",Urgences 24,23002,,,Saly Portudal,Département de M'bour,Région de Thiès,Sénégal,sn,79E,Route de Saly
img_16938.jpg,-37.81406784057617,144.9802703857422,18804446,node,1745067456,amenity,drinking_water,house,0,"Wellington Parade, Jolimont, East Melbourne, Melbourne, City of Melbourne, Victoria, 3002, Australia",,3002,Jolimont,East Melbourne,Melbourne,,Victoria,Australia,au,,Wellington Parade
img_16939.jpg,-33.51823425292969,-56.89430618286133,15022512,node,6994019810,place,house,house,0,"668, Wilson Ferreira Aldunate, Trinidad, Flores, 85000, Uruguay",,85000,,,Trinidad,,Flores,Uruguay,uy,668,Wilson Ferreira Aldunate
img_16940.jpg,45.55567932128906,-73.82611083984375,340099267,node,2437368959,place,house,house,0,"1635, Montée Champagne, Sainte-Dorothée, Laval (région administrative), Québec, H7R 1L3, Canada",,H7R 1L3,,Sainte-Dorothée,Laval (région administrative),,Québec,Canada,ca,1635,Montée Champagne
img_16941.jpg,-10.662199020385742,-77.80825805664062,3151276,way,1164995583,highway,trunk,street,0,"Carretera a Huaraz, Paramonga, Barranca, Lima, 15178, Perú",Carretera a Huaraz,15178,,,Paramonga,Barranca,Lima,Perú,pe,,
img_16942.jpg,28.538503646850582,-81.371337890625,368813503,way,80776639,place,house,house,0,"399, Osceola Avenue, South Eola, Orlando, Orange County, Florida, 32801, United States",,32801,South Eola,,Orlando,Orange County,Florida,United States,us,399,Osceola Avenue
img_16943.jpg,47.36806106567383,9.645529747009276,65837583,node,1243571850,amenity,bench,house,0,"Fahrmaadstrasse, Diepoldsau, Wahlkreis Rheintal, St. Gallen, 9444, Schweiz/Suisse/Svizzera/Svizra",,9444,,,Diepoldsau,Wahlkreis Rheintal,St. Gallen,Schweiz/Suisse/Svizzera/Svizra,ch,,Fahrmaadstrasse
img_16944.jpg,41.67881393432617,-93.58135223388672,356169021,way,85466094,place,house,house,0,"5800, Northeast 22nd Street, Ankeny, Polk County, Iowa, 50313, United States",,50313,,,Ankeny,Polk County,Iowa,United States,us,5800,Northeast 22nd Street
img_16945.jpg,11.30580997467041,77.6209716796875,235995102,way,242681697,highway,unclassified,street,0,"Erode, Tamil Nadu, 638052, India",,638052,,,,Erode,Tamil Nadu,India,in,,
img_16946.jpg,42.28835678100586,-83.30064392089844,365572974,way,8734778,place,house,house,0,"26644, Yale Street, Westwood Sub of Van Alstine Farm, Inkster, Wayne County, Michigan, 48141, United States",,48141,Westwood Sub of Van Alstine Farm,,Inkster,Wayne County,Michigan,United States,us,26644,Yale Street
img_16947.jpg,-26.18352508544922,31.57670783996582,30044770,way,77014535,highway,primary,street,0,"MR5, Mbuluzana, Croydon, Inkhundla Mkhiweni, Manzini, eSwatini",MR5,,,Mbuluzana,Croydon,Inkhundla Mkhiweni,Manzini,eSwatini,sz,,
img_16948.jpg,48.00054550170898,17.470924377441406,60332122,way,300707186,highway,primary,street,0,"63, Veľká Budafa, Blatná na Ostrove, Holice, okres Dunajská Streda, Trnavský kraj, Západné Slovensko, 930 34, Slovensko",63,930 34,Veľká Budafa,Blatná na Ostrove,okres Dunajská Streda,,Trnavský kraj,Slovensko,sk,,
img_16949.jpg,55.89375686645508,-4.310426235198975,254495459,way,4252153,highway,tertiary,street,0,"Temple Road, Dawsholm, Temple, Glasgow, Glasgow City, Alba / Scotland, G13 1JQ, United Kingdom",Temple Road,G13 1JQ,Dawsholm,Temple,Glasgow,Glasgow City,Alba / Scotland,United Kingdom,gb,,
img_16950.jpg,41.44239807128906,2.1600048542022705,75760432,way,49804042,highway,residential,street,0,"Carretera Alta de les Roquetes, Canyelles, Nou Barris, Barcelona, Barcelonès, Barcelona, Catalunya, 08031, España",Carretera Alta de les Roquetes,08031,Canyelles,Nou Barris,Barcelona,Barcelonès,Catalunya,España,es,,
img_16951.jpg,47.85594940185547,35.1326904296875,190440477,way,52501660,highway,secondary,street,0,"Заводський район, Запоріжжя, Запорізька міська громада, Запорізький район, Запорізька область, 69000, Україна",,69000,,Заводський район,Запоріжжя,Запорізький район,Запорізька область,Україна,ua,,
img_16952.jpg,-4.273203372955322,121.57916259765624,25232616,way,588595481,highway,unclassified,street,0,"Lomboato, Kolaka, Sulawesi Tenggara, Sulawesi, Indonesia",,,,,Lomboato,Kolaka,Sulawesi Tenggara,Indonesia,id,,
img_16953.jpg,47.08634185791016,2.520004749298096,86064558,way,238768650,highway,residential,street,0,"Rue Moïse Cerveau, Le Colombier, Moulins-sur-Yèvre, Bourges, Cher, Centre-Val de Loire, France métropolitaine, 18390, France",Rue Moïse Cerveau,18390,,Le Colombier,Moulins-sur-Yèvre,Cher,Centre-Val de Loire,France,fr,,
img_16954.jpg,37.72307205200195,-97.24864196777344,376149486,way,1314601873,place,house,house,0,"7714, East 21st Street North, Minneha, Wichita, Sedgwick County, Kansas, 67226, United States",,67226,,Minneha,Wichita,Sedgwick County,Kansas,United States,us,7714,East 21st Street North
img_16955.jpg,1.5396366119384766,104.05809783935548,236551209,way,806537003,highway,motorway,street,0,"Senai Desaru Expressway, Kota Tinggi, Johor, 81940, Malaysia",Senai Desaru Expressway,81940,,,,Kota Tinggi,Johor,Malaysia,my,,
img_16956.jpg,13.843310356140137,99.9809341430664,238156501,way,209513294,highway,unclassified,street,0,"นครปฐม, โพรงมะเดื่อ, ลำพยา, จังหวัดนครปฐม, ประเทศไทย",,,,,นครปฐม,ลำพยา,จังหวัดนครปฐม,ประเทศไทย,th,,
img_16957.jpg,39.858009338378906,-87.23572540283203,387927301,way,1332558333,place,house,house,0,"6400, US 41, Parke County, Indiana, 47832, United States",,47832,,,,Parke County,Indiana,United States,us,6400,US 41
img_16958.jpg,46.53755569458008,-87.40365600585938,359669163,way,19280486,place,house,house,0,"801, Altamont Street, Marquette, Marquette County, Michigan, 49855, United States",,49855,,,Marquette,Marquette County,Michigan,United States,us,801,Altamont Street
img_16959.jpg,52.5048942565918,8.176041603088379,131144526,way,486416465,building,residential,house,0,"4, In der Jeest, Clemens-August-Dorf, Sierhausen, Damme, Landkreis Vechta, Niedersachsen, 49401, Deutschland",,49401,,Clemens-August-Dorf,Damme,Landkreis Vechta,Niedersachsen,Deutschland,de,4,In der Jeest
img_16960.jpg,41.297847747802734,-8.736019134521484,264846842,way,132756433,highway,residential,street,0,"Rua da Alegria, Vila Chã, Vila do Conde, Porto, 4485-717, Portugal",Rua da Alegria,4485-717,,Vila Chã,Vila do Conde,Porto,,Portugal,pt,,
img_16961.jpg,44.50674057006836,1.186922550201416,78247075,way,1089011710,amenity,parking,house,0,"Place André Faure, Route du Théron, Prayssac, Cahors, Lot, Occitanie, France métropolitaine, 46220, France",Place André Faure,46220,,,Prayssac,Lot,Occitanie,France,fr,,Route du Théron
img_16962.jpg,44.021759033203125,-91.55809020996094,346064905,way,615403353,amenity,townhall,house,0,"Homer Town Hall, 36087, Homer Road, Homer, Winona County, Minnesota, United States",Homer Town Hall,,Homer,,Homer,Winona County,Minnesota,United States,us,36087,Homer Road
img_16963.jpg,45.5114860534668,2.932950258255005,78970301,node,2869124502,amenity,restaurant,house,0,"Le Bessoi, 1, Place de la Gayme, Berthelage, La Gazelle, Besse, Besse-et-Saint-Anastaise, Issoire, Puy-de-Dôme, Auvergne-Rhône-Alpes, France métropolitaine, 63610, France",Le Bessoi,63610,Berthelage,La Gazelle,Besse-et-Saint-Anastaise,Puy-de-Dôme,Auvergne-Rhône-Alpes,France,fr,1,Place de la Gayme
img_16964.jpg,-30.901500701904297,-68.81326293945312,4423997,way,479107802,highway,secondary,street,0,"Ruta Provincial 436, Ullúm, San Juan, Argentina",Ruta Provincial 436,,,,,Ullúm,San Juan,Argentina,ar,,
img_16965.jpg,55.820457458496094,-4.530792236328125,254675935,way,183462892,highway,residential,street,0,"Cochranefield, Johnstone, Renfrewshire, Alba / Scotland, PA5 0SQ, United Kingdom",,PA5 0SQ,Cochranefield,,Johnstone,Renfrewshire,Alba / Scotland,United Kingdom,gb,,
img_16966.jpg,57.60714340209961,39.888946533203125,183860348,way,171732626,highway,residential,street,0,"Туговская улица, Коровники, Фрунзенский район, городской округ Ярославль, Ярославская область, Центральный федеральный округ, 150001, Россия",Туговская улица,150001,,Коровники,городской округ Ярославль,,Ярославская область,Россия,ru,,
img_16967.jpg,46.33027648925781,-73.5442123413086,337487591,way,85630360,highway,tertiary,street,0,"Lac-Matambin, Saint-Damien, Matawinie, Lanaudière, Québec, J0K 2E0, Canada",,J0K 2E0,Lac-Matambin,,Saint-Damien,Matawinie,Québec,Canada,ca,,
img_16968.jpg,-0.7755507230758667,35.2776985168457,33251357,way,33402279,highway,trunk,street,0,"Kaplong-Narok-Maai Road, Kapkwen, Chepalungu, Bomet, Rift Valley, 20400, Kenya",Kaplong-Narok-Maai Road,20400,,,Kapkwen,Chepalungu,Bomet,Kenya,ke,,
img_16969.jpg,41.78490829467773,-122.4730224609375,367590147,way,10664960,place,house,house,0,"5128, Airport Road, Snowden, Siskiyou County, California, 96064, United States",,96064,,Snowden,,Siskiyou County,California,United States,us,5128,Airport Road
img_16970.jpg,23.879854202270508,90.417236328125,232648422,way,367608775,highway,secondary,street,0,"আটিপাড়া তেরমুখ সড়ক, আব্দুল্লাহপুর, উত্তরা, ঢাকা মহানগর, ঢাকা জেলা, ঢাকা বিভাগ, 1276, বাংলাদেশ",আটিপাড়া তেরমুখ সড়ক,1276,আব্দুল্লাহপুর,উত্তরা,ঢাকা মহানগর,ঢাকা জেলা,ঢাকা বিভাগ,বাংলাদেশ,bd,,
img_16971.jpg,46.27967834472656,-63.17085266113281,30810227,way,200065678,place,house,house,0,"29, Thorndale Drive, Charlottetown, City of Charlottetown, Queens County, Prince Edward Island, C1E 2L2, Canada",,C1E 2L2,,Charlottetown,City of Charlottetown,Queens County,Prince Edward Island,Canada,ca,29,Thorndale Drive
img_16972.jpg,45.8016357421875,15.170825958251951,72278983,way,1090842874,man_made,bridge,house,0,"Kandijski most, Glavni trg, Novo mesto, 8000, Slovenija",Kandijski most,8000,,,Novo mesto,,,Slovenija,si,,Glavni trg
img_16973.jpg,39.01629257202149,-94.57902526855467,373131069,way,604248419,place,house,house,0,"6113, Holmes Street, Western 49/63, Kansas City, Jackson County, Missouri, 64110, United States",,64110,Western 49/63,,Kansas City,Jackson County,Missouri,United States,us,6113,Holmes Street
img_16974.jpg,24.20065116882324,120.5324249267578,212260312,node,8550209586,place,house,house,0,"235號, 觀光路208巷, 龍津里, 龍井區, 臺中市, 43452, 臺灣",,43452,龍津里,龍井區,臺中市,,,臺灣,tw,235號,觀光路208巷
img_16975.jpg,54.8984375,-2.9341859817504883,254472234,node,11927017590,leisure,fitness_centre,house,0,"The Sands Leisure Centre, Hardwicke Circus, Whiteclosegate, Stanwix, Carlisle, Cumberland, England, CA1 1JQ, United Kingdom",The Sands Leisure Centre,CA1 1JQ,Whiteclosegate,Stanwix,Carlisle,Cumberland,England,United Kingdom,gb,,Hardwicke Circus
img_16976.jpg,49.765472412109375,16.701988220214844,172142627,way,1037219154,man_made,bridge,house,0,"35, Linhartice, okres Svitavy, Pardubický kraj, Severovýchod, 571 01, Česko",,571 01,,Linhartice,Linhartice,Pardubický kraj,Severovýchod,Česko,cz,,35
img_16977.jpg,55.784915924072266,-4.295053482055664,254392955,way,1230207035,building,yes,house,0,"67, Beechlands Drive, High Carolside, Carolside, Clarkston, East Renfrewshire, Alba / Scotland, G76 7UZ, United Kingdom",,G76 7UZ,High Carolside,Carolside,Clarkston,East Renfrewshire,Alba / Scotland,United Kingdom,gb,67,Beechlands Drive
img_16978.jpg,23.051532745361328,72.50813293457031,229077029,way,174746384,highway,tertiary,street,0,"Thaltej, Ghatlodiya Taluka, Ahmedabad, Gujarat, 380059, India",,380059,,Thaltej,,Ghatlodiya Taluka,Gujarat,India,in,,
img_16979.jpg,38.80096435546875,-104.84264373779295,387074748,way,877430172,place,house,house,0,"900, West Cheyenne Road, Broadmoor, Colorado Springs, El Paso County, Colorado, 80906, United States",,80906,,Broadmoor,Colorado Springs,El Paso County,Colorado,United States,us,900,West Cheyenne Road
img_16980.jpg,51.71266174316406,36.19435501098633,178966703,way,240119843,building,yes,house,0,"21, улица Пожарского, Цыганский бугор, Железнодорожный округ, городской округ Курск, Курская область, Центральный федеральный округ, 305019, Россия",,305019,,Цыганский бугор,городской округ Курск,,Курская область,Россия,ru,21,улица Пожарского
img_16981.jpg,42.94246292114258,-71.11800384521484,333697257,way,829552873,highway,secondary,street,0,"Main Street, North Danville, Danville, Rockingham County, New Hampshire, 03819, United States",Main Street,03819,,North Danville,Danville,Rockingham County,New Hampshire,United States,us,,
img_16982.jpg,-13.425151824951172,-76.1344223022461,3350123,way,513971242,highway,trunk,street,0,"Antigua Carretera Panamericana Sur, Antarica, Cruz de La Molina, Chincha Alta, Chincha, Ica, 11700, Perú",Antigua Carretera Panamericana Sur,11700,,Antarica,Chincha Alta,Chincha,Ica,Perú,pe,,
img_16983.jpg,46.052207946777344,38.2045783996582,190349043,way,506684475,building,yes,house,0,"5, улица Гоголя, Приморско-Ахтарск, Приморско-Ахтарское городское поселение, Приморско-Ахтарский район, Краснодарский край, Южный федеральный округ, 353866, Россия",,353866,,,Приморско-Ахтарск,Приморско-Ахтарский район,Краснодарский край,Россия,ru,5,улица Гоголя
img_16984.jpg,-37.976200103759766,176.37094116210938,22896387,way,825081027,highway,trunk,street,0,"State Highway 33, Rotorua Lakes District, Bay of Plenty, New Zealand / Aotearoa",State Highway 33,,,,,Rotorua Lakes District,Bay of Plenty,New Zealand / Aotearoa,nz,,
img_16985.jpg,8.871912956237793,7.266302585601807,36007863,way,371315138,highway,tertiary,street,0,"Kuje, Municipal Area Council, Federal Capital Territory, Nigeria",,,,,Kuje,Municipal Area Council,Federal Capital Territory,Nigeria,ng,,
img_16986.jpg,20.58983421325684,-100.03849792480467,291305892,way,320750169,highway,tertiary,street,0,"Tequisquiapan, Querétaro, 76750, México",,76750,,,,Tequisquiapan,Querétaro,México,mx,,
img_16987.jpg,45.190391540527344,5.756202697753906,82637293,way,5489347,highway,residential,street,0,"Rue Jean-Richard Bloch, Bidal-Péri, Saint-Martin-d'Hères, Grenoble, Isère, Auvergne-Rhône-Alpes, France métropolitaine, 38400, France",Rue Jean-Richard Bloch,38400,,Bidal-Péri,Saint-Martin-d'Hères,Isère,Auvergne-Rhône-Alpes,France,fr,,
img_16988.jpg,-28.71441650390625,-65.77073669433594,4321680,way,481242373,highway,trunk,street,0,"Ruta Provincial 33, Antipana, Las Esquinas, Municipio de Huillapima, Departamento Valle Viejo, Catamarca, K4726, Argentina",Ruta Provincial 33,K4726,Antipana,,Las Esquinas,Departamento Valle Viejo,Catamarca,Argentina,ar,,
img_16989.jpg,23.50366401672364,120.46280670166016,217600855,way,241572585,highway,unclassified,street,0,"林子尾, 秀林村, 民雄鄉, 嘉義縣, 621, 臺灣",,621,,林子尾,民雄鄉,嘉義縣,,臺灣,tw,,
img_16990.jpg,40.22297286987305,-74.71513366699219,386018608,way,11641538,place,house,house,0,"98, Brook Lane, Hamilton Township, Mercer County, New Jersey, 08619, United States",,08619,,,Hamilton Township,Mercer County,New Jersey,United States,us,98,Brook Lane
img_16991.jpg,24.43944549560547,90.73915100097656,224937019,way,589278955,highway,residential,street,0,"Govindapur courasta -Kishoreganj Road, কিশোরগঞ্জ, কিশোরগঞ্জ সদর উপজেলা, কিশোরগঞ্জ জেলা, ঢাকা বিভাগ, বাংলাদেশ",Govindapur courasta -Kishoreganj Road,,,,কিশোরগঞ্জ,কিশোরগঞ্জ সদর উপজেলা,ঢাকা বিভাগ,বাংলাদেশ,bd,,
img_16992.jpg,36.06240463256836,-107.96199798583984,312487208,node,11044472998,tourism,information,house,0,"Pueblo Bonito trail, San Juan County, New Mexico, United States",,,,,,San Juan County,New Mexico,United States,us,,Pueblo Bonito trail
img_16993.jpg,51.401973724365234,4.988829135894775,97553366,way,363909586,building,house,house,0,"3, Oudelijns, Weelde, Ravels, Turnhout, Antwerpen, Vlaanderen, 2381, België / Belgique / Belgien",,2381,,Weelde,Ravels,Turnhout,Antwerpen,België / Belgique / Belgien,be,3,Oudelijns
img_16994.jpg,41.517852783203125,-83.44213104248047,345473886,way,1226781502,highway,motorway,street,0,"Ohio Turnpike, Wood County, Ohio, 43441, United States",Ohio Turnpike,43441,,,,Wood County,Ohio,United States,us,,
img_16995.jpg,43.58781051635742,13.552410125732422,71796799,way,148170642,highway,tertiary,street,0,"Frazione Montacuto, Monte Baldino, Montacuto, Ancona, Marche, 60129, Italia",Frazione Montacuto,60129,,Monte Baldino,Ancona,Ancona,Marche,Italia,it,,
img_16996.jpg,48.31804656982422,14.265976905822754,118485950,way,144931296,building,house,house,0,"26, Mitterbergerweg, Pöstlingberg, Linz, Oberösterreich, 4040, Österreich",,4040,,Pöstlingberg,Linz,,Oberösterreich,Österreich,at,26,Mitterbergerweg
img_16997.jpg,52.20063781738281,-4.344019889831543,256425009,way,160450751,highway,unclassified,street,0,"Cross Inn, Llanllwchaiarn, Llanlwchaiarn, Ceredigion, Cymru / Wales, SA44 6NR, United Kingdom",,SA44 6NR,Cross Inn,Llanllwchaiarn,Llanlwchaiarn,Ceredigion,Cymru / Wales,United Kingdom,gb,,
img_16998.jpg,11.531356811523438,104.77606201171876,239750052,way,160885374,highway,residential,street,0,"ភូមិព្រៃកុដិ, សង្កាត់កំបូល, ខណ្ឌកំបូល, រាជធានីភ្នំពេញ, 120905, ព្រះរាជាណាចក្រ​កម្ពុជា",,120905,,ភូមិព្រៃកុដិ,ខណ្ឌកំបូល,,រាជធានីភ្នំពេញ,ព្រះរាជាណាចក្រ​កម្ពុជា,kh,,
img_16999.jpg,44.43197250366211,-73.19277954101562,381571935,way,174414310,place,house,house,0,"1559, Spear Street, South Burlington, Chittenden County, Vermont, 05403, United States",,05403,,,South Burlington,Chittenden County,Vermont,United States,us,1559,Spear Street
img_17000.jpg,52.92505645751953,49.493072509765625,188061528,way,248630242,highway,secondary,street,0,"«Самара — Волгоград» — Осинки — Безенчук, сельское поселение Песочное, Безенчукский район, Самарская область, Приволжский федеральный округ, Россия",«Самара — Волгоград» — Осинки — Безенчук,,,,сельское поселение Песочное,Безенчукский район,Самарская область,Россия,ru,,
img_17001.jpg,40.20830154418945,-76.27243041992188,387910833,way,11921939,place,house,house,0,"450, Hammer Creek Road, Elizabeth Township, Lancaster County, Pennsylvania, 17543, United States",,17543,,,Elizabeth Township,Lancaster County,Pennsylvania,United States,us,450,Hammer Creek Road
img_17002.jpg,53.91097259521485,19.30403518676757,160808445,way,105234384,highway,tertiary,street,0,"Olszak, Morany, gmina Dzierzgoń, powiat sztumski, województwo pomorskie, 82-410, Polska",,82-410,,Olszak,Morany,powiat sztumski,województwo pomorskie,Polska,pl,,
img_17003.jpg,-36.887943267822266,174.78665161132812,21827105,node,5458501617,place,house,house,0,"2A, Korau Road, Greenlane, Albert-Eden, Auckland, 1040, New Zealand / Aotearoa",,1040,,Greenlane,Albert-Eden,,Auckland,New Zealand / Aotearoa,nz,2A,Korau Road
img_17004.jpg,34.054237365722656,135.5765838623047,250464675,way,129178362,highway,trunk,street,0,"高野龍神スカイライン, 田辺市, 和歌山県, 646-8545, 日本",高野龍神スカイライン,646-8545,,,田辺市,,和歌山県,日本,jp,,
img_17005.jpg,54.46712112426758,-6.732818603515625,255132958,way,259096818,highway,unclassified,street,0,"County Tyrone, Northern Ireland / Tuaisceart Éireann, BT71 7ER, United Kingdom",,BT71 7ER,,,,County Tyrone,Northern Ireland / Tuaisceart Éireann,United Kingdom,gb,,
img_17006.jpg,57.68393325805664,12.006231307983398,153137467,way,4550259,highway,residential,street,0,"Mejerigatan, Kallebäck, Centrum, Göteborg, Göteborgs Stad, Västra Götalands län, 412 75, Sverige",Mejerigatan,412 75,,Kallebäck,Göteborg,Västra Götalands län,,Sverige,se,,
img_17007.jpg,55.79022979736328,-4.275253772735596,255311310,way,760854456,building,yes,house,0,"12, Stamperland Hill, Slamanshill, Stamperland, Clarkston, East Renfrewshire, Alba / Scotland, G76 8AF, United Kingdom",,G76 8AF,Slamanshill,Stamperland,Clarkston,East Renfrewshire,Alba / Scotland,United Kingdom,gb,12,Stamperland Hill
img_17008.jpg,41.09662628173828,16.964244842529297,50990766,node,9049989342,shop,bakery,house,0,"Panificio Montecristo, 96, Strada detta della Marina, San Giorgio, Municipio 1, Bari, Puglia, 70126, Italia",Panificio Montecristo,70126,San Giorgio,Municipio 1,Bari,Bari,Puglia,Italia,it,96,Strada detta della Marina
img_17009.jpg,-36.26949691772461,174.4972686767578,21296027,node,5432816920,place,house,house,0,"195, Whakapirau Road, Wellsford, Rodney, Auckland, 0900, New Zealand / Aotearoa",,0900,,Wellsford,Rodney,,Auckland,New Zealand / Aotearoa,nz,195,Whakapirau Road
img_17010.jpg,55.35723876953125,86.02557373046875,200198852,way,98043644,building,yes,house,0,"14, Красноармейская улица, Заводский район, Кемерово, Кемеровский городской округ, Кемеровская область, Сибирский федеральный округ, 650021, Россия",,650021,,Заводский район,Кемерово,Кемеровский городской округ,Кемеровская область,Россия,ru,14,Красноармейская улица
img_17011.jpg,-33.18351364135742,138.0321807861328,17781551,way,115710438,highway,residential,street,0,"Bartsch Drive, Solomontown, Port Pirie Regional Council, South Australia, 5540, Australia",Bartsch Drive,5540,,Solomontown,Port Pirie Regional Council,,South Australia,Australia,au,,
img_17012.jpg,38.09918594360352,-1.1739013195037842,273875788,way,184544099,highway,residential,street,0,"Los Olivos, Romeral, Molina de Segura, Vega Media del Segura, Región de Murcia, 30509, España",,30509,Los Olivos,,Molina de Segura,Vega Media del Segura,Región de Murcia,España,es,,
img_17013.jpg,51.026832580566406,5.021611213684082,104390560,way,404806433,highway,residential,street,0,"Heuvelken, Tessenderlo, Hasselt, Limburg, Vlaanderen, 3980, België / Belgique / Belgien",Heuvelken,3980,,,Tessenderlo,Hasselt,Limburg,België / Belgique / Belgien,be,,
img_17014.jpg,43.619117736816406,-116.54188537597656,302548218,way,1022140766,highway,residential,street,0,"East Wessex Court, Sherwood Meadows, Nampa, Canyon County, Idaho, 83867, United States",East Wessex Court,83867,Sherwood Meadows,,Nampa,Canyon County,Idaho,United States,us,,
img_17015.jpg,35.88151168823242,139.39439392089844,245690913,way,29359087,tourism,zoo,house,0,"智光山動物公園, 堀兼根岸線, 大字下広瀬, 狭山市, 埼玉県, 350-1335, 日本",智光山動物公園,350-1335,大字下広瀬,,狭山市,,埼玉県,日本,jp,,堀兼根岸線
img_17016.jpg,28.66588020324707,-106.11550903320312,290529277,way,778554284,highway,residential,street,0,"Calle Huancune, Chihuahua, Municipio de Chihuahua, Chihuahua, 31110, México",Calle Huancune,31110,,,Chihuahua,Municipio de Chihuahua,Chihuahua,México,mx,,
img_17017.jpg,49.0490608215332,11.73409652709961,116758168,way,28730404,highway,tertiary,street,0,"R 27, Angern, Langenkreith, Hemau, Landkreis Regensburg, Bayern, 93155, Deutschland",R 27,93155,,Angern,Hemau,Landkreis Regensburg,Bayern,Deutschland,de,,
img_17018.jpg,38.47368240356445,-76.50355529785156,385541385,way,1154051722,place,house,house,0,"699, Calvert Beach Road, Calvert Beach Park, Saint Leonard, Calvert County, Maryland, 20685, United States",,20685,,Calvert Beach Park,Saint Leonard,Calvert County,Maryland,United States,us,699,Calvert Beach Road
img_17019.jpg,30.7274227142334,76.78468322753906,225352152,way,129553411,highway,secondary,street,0,"Junciton 28, Sector 20, Ward 16, Chandigarh, 160018, India",Junciton 28,160018,,Sector 20,Chandigarh,Chandigarh,Chandigarh,India,in,,
img_17020.jpg,14.622660636901855,-16.096067428588867,276803355,way,363335742,highway,tertiary,street,0,"Tayré, Communauté rurale de Patar, Arrondissement de Ndoulo, Département de Diourbel, Région de Diourbel, Sénégal",,,,Tayré,Communauté rurale de Patar,Département de Diourbel,Région de Diourbel,Sénégal,sn,,
img_17021.jpg,51.20113754272461,4.4026384353637695,96730892,way,502398877,building,yes,house,0,"183-189, Haantjeslei, Markgrave, Antwerpen, Vlaanderen, 2018, België / Belgique / Belgien",,2018,Markgrave,Antwerpen,Antwerpen,Antwerpen,Antwerpen,België / Belgique / Belgien,be,183-189,Haantjeslei
img_17022.jpg,-3.751924514770508,-73.27754974365234,2727377,way,106668962,highway,residential,street,0,"Iquitos, Maynas, Loreto, 16006, Perú",,16006,,,Iquitos,Maynas,Loreto,Perú,pe,,
img_17023.jpg,36.74121856689453,10.031655311584473,47302056,way,111661128,highway,motorway,street,0,"الطريق السريعة تونس - بوسالم, بورقبة, معتمدية المرناقية, ولاية منوبة, 1110, تونس",الطريق السريعة تونس - بوسالم,1110,,,,بورقبة,ولاية منوبة,تونس,tn,,
img_17024.jpg,-0.1118590608239173,100.55349731445312,28518265,way,818683042,highway,secondary,street,0,"Limbanang, Lima Puluh Kota, Sumatera Barat, Sumatera, Indonesia",,,,,Limbanang,Lima Puluh Kota,Sumatera Barat,Indonesia,id,,
img_17025.jpg,53.3596305847168,83.65396881103516,202366029,way,104288431,building,house,house,0,"13, Рубиновая улица, Солнечная поляна, Индустриальный район, Барнаул, городской округ Барнаул, Алтайский край, Сибирский федеральный округ, 656000, Россия",,656000,,Солнечная поляна,Барнаул,городской округ Барнаул,Алтайский край,Россия,ru,13,Рубиновая улица
img_17026.jpg,34.4767951965332,-82.63003540039062,378555733,way,12118242,place,house,house,0,"253, Schmid Plaza Road, Carolina Springs, Anderson County, South Carolina, 29624, United States",,29624,,Carolina Springs,,Anderson County,South Carolina,United States,us,253,Schmid Plaza Road
img_17027.jpg,48.243896484375,16.349206924438477,174665223,way,8106116,highway,secondary,street,0,"Silbergasse, KG Unterdöbling, Döbling, Wien, 1190, Österreich",Silbergasse,1190,,KG Unterdöbling,Wien,,,Österreich,at,,
img_17028.jpg,49.37482070922852,-109.0890121459961,347064584,way,196305399,highway,primary,street,0,"Red Coat Trail, Eastend, White Valley No. 49, Saskatchewan, Canada",Red Coat Trail,,,,Eastend,White Valley No. 49,Saskatchewan,Canada,ca,,
img_17029.jpg,42.08114242553711,24.31077766418457,54265093,way,274709677,highway,residential,street,0,"Радилово, Пещера, Пазарджик, 4550, България",,4550,,,Радилово,Пещера,Пазарджик,България,bg,,
img_17030.jpg,-34.586368560791016,-58.40047073364258,16392716,way,362673964,place,house,house,0,"2727, Juan María Gutiérrez, La Isla, Recoleta, Buenos Aires, Comuna 2, Ciudad Autónoma de Buenos Aires, C1425EID, Argentina",,C1425EID,La Isla,Recoleta,Buenos Aires,Comuna 2,Ciudad Autónoma de Buenos Aires,Argentina,ar,2727,Juan María Gutiérrez
img_17031.jpg,54.540618896484375,36.300270080566406,182265317,way,176767275,amenity,parking,house,0,"Зерновая улица, посёлок Железнодорожников, Октябрьский округ, Тайфун, Калуга, городской округ Калуга, Калужская область, Центральный федеральный округ, 248025, Россия",,248025,посёлок Железнодорожников,Тайфун,Калуга,городской округ Калуга,Калужская область,Россия,ru,,Зерновая улица
img_17032.jpg,-3.417372703552246,119.16345977783205,24686799,way,588024175,highway,unclassified,street,0,"Botto, Polewali Mandar, Sulawesi Barat, Sulawesi, Indonesia",,,,,Botto,Polewali Mandar,Sulawesi Barat,Indonesia,id,,
img_17033.jpg,29.76311683654785,-81.31387329101562,278695842,way,128573623,highway,primary,street,0,"US 1, Saint Johns County, Florida, United States",US 1,,,,,Saint Johns County,Florida,United States,us,,
img_17034.jpg,23.0655517578125,72.52568817138672,229260936,way,597639162,highway,residential,street,0,"Bhagwat Nagar, Ghatlodiya Taluka, Ahmedabad, Gujarat, 380061, India",,380061,,Bhagwat Nagar,,Ghatlodiya Taluka,Gujarat,India,in,,
img_17035.jpg,31.30458641052246,-92.4547119140625,357261678,way,107501629,place,house,house,0,"1706, Jackson Street, Alexandria, Rapides Parish, Louisiana, 71301, United States",,71301,,,Alexandria,Rapides Parish,Louisiana,United States,us,1706,Jackson Street
img_17036.jpg,45.243202209472656,19.87934112548828,58123858,way,331362015,building,house,house,0,"25, Божидара Аџије, Нови Мајур, МЗ Петроварадин, Петроварадин, Град Нови Сад, Јужнобачки управни округ, Војводина, 21000, Србија",,21000,Нови Мајур,МЗ Петроварадин,Петроварадин,Јужнобачки управни округ,Војводина,Србија,rs,25,Божидара Аџије
img_17037.jpg,46.29663848876953,-94.14547729492188,381190295,way,18062510,place,house,house,0,"9615, State Highway 25, Brainerd, Crow Wing County, Minnesota, 56401, United States",,56401,,,Brainerd,Crow Wing County,Minnesota,United States,us,9615,State Highway 25
img_17038.jpg,28.776142120361328,77.13258361816406,224437650,way,150528478,highway,tertiary,street,0,"Alipur, Alipur Tehsil, North Delhi, Delhi, 110082, India",,110082,,Alipur,,Alipur Tehsil,Delhi,India,in,,
img_17039.jpg,-37.80268859863281,145.18727111816406,18485857,way,175963074,highway,residential,street,0,"Hedge End Road, Nunawading, Melbourne, City of Whitehorse, Victoria, 3132, Australia",Hedge End Road,3132,,Nunawading,Melbourne,,Victoria,Australia,au,,
img_17040.jpg,42.88296890258789,-76.96339416503906,325251498,node,8770829562,place,house,house,0,"2917, Pre-Emption Street, Border City, Town of Geneva, Seneca County, New York, 14456, United States",,14456,,Border City,Town of Geneva,Seneca County,New York,United States,us,2917,Pre-Emption Street
img_17041.jpg,48.78999710083008,2.4984347820281982,88549355,node,2092035387,place,house,house,0,"47ter, Avenue de Liège, Les Mûriers, Saint-Maur-des-Fossés, Nogent-sur-Marne, Val-de-Marne, Île-de-France, France métropolitaine, 94210, France",,94210,,Les Mûriers,Saint-Maur-des-Fossés,Val-de-Marne,Île-de-France,France,fr,47ter,Avenue de Liège
img_17042.jpg,-1.8941633701324463,30.07901382446289,33578743,node,11385535742,highway,bus_stop,house,0,"I Giheka, KG 24 Avenue, Gatsata / Karuruma, Akarere ka Gasabo, Umujyi wa Kigali, Rwanda",I Giheka,,,,Gatsata / Karuruma,Akarere ka Gasabo,Umujyi wa Kigali,Rwanda,rw,,KG 24 Avenue
img_17043.jpg,41.073638916015625,14.026605606079102,72620834,way,310580660,highway,secondary,street,0,"Strada Provinciale 21 Cancello - Cappella Reale, Cancello ed Arnone, Caserta, Campania, Italia",Strada Provinciale 21 Cancello - Cappella Reale,,Cancello ed Arnone,,Cancello ed Arnone,Caserta,Campania,Italia,it,,
img_17044.jpg,-35.52131271362305,143.7317657470703,17773232,way,133039316,highway,primary,street,0,"Murray Valley Highway, Tresco, Lake Boga, Rural City of Swan Hill, Victoria, 3579, Australia",Murray Valley Highway,3579,,Tresco,Lake Boga,,Victoria,Australia,au,,
img_17045.jpg,56.25838088989258,12.869414329528809,152191255,way,549981441,highway,residential,street,0,"Violgatan, Haradal, Ängelholm, Ängelholms kommun, Skåne län, 262 33, Sverige",Violgatan,262 33,Haradal,,Ängelholm,Skåne län,,Sverige,se,,
img_17046.jpg,52.16728973388672,11.085626602172852,132179755,way,240628254,building,yes,house,0,"21, Rosa-Luxemburg-Straße, Sommersdorf, Obere Aller, Börde, Sachsen-Anhalt, 39365, Deutschland",,39365,,Sommersdorf,Sommersdorf,Börde,Sachsen-Anhalt,Deutschland,de,21,Rosa-Luxemburg-Straße
img_17047.jpg,53.188697814941406,-2.596824884414673,255101104,way,28422854,highway,tertiary,street,0,"Mill Lane, Little Budworth, Cheshire West and Chester, England, CW6 9DA, United Kingdom",Mill Lane,CW6 9DA,,,Little Budworth,Cheshire West and Chester,England,United Kingdom,gb,,
img_17048.jpg,55.405067443847656,37.78799819946289,182244385,way,1051225225,highway,motorway,street,0,"«Дон», городской округ Домодедово, Московская область, Центральный федеральный округ, 142072, Россия",«Дон»,142072,,,,городской округ Домодедово,Московская область,Россия,ru,,
img_17049.jpg,42.00110626220703,-71.6985092163086,373319416,way,19370296,place,house,house,0,"805, Brook Road, Round Top, Burrillville, Providence County, Rhode Island, 02830, United States",,02830,Round Top,,Burrillville,Providence County,Rhode Island,United States,us,805,Brook Road
img_17050.jpg,44.971622467041016,18.88071250915528,58586255,way,286102557,highway,tertiary,street,0,"46050, Općina Vrbanja, Vukovarsko-srijemska županija, 32254, Hrvatska",46050,32254,,,Općina Vrbanja,Vukovarsko-srijemska županija,,Hrvatska,hr,,
img_17051.jpg,51.09926223754883,5.7366943359375,101797672,way,746415268,building,yes,house,0,"226, Diestersteenweg, Maaseik, Limburg, Vlaanderen, 3680, België / Belgique / Belgien",,3680,,Maaseik,Maaseik,Maaseik,Limburg,België / Belgique / Belgien,be,226,Diestersteenweg
img_17052.jpg,36.18088150024414,-82.76953125,369462821,way,19481847,place,house,house,0,"866, Crestview Drive, College View, Greeneville, Greene County, East Tennessee, Tennessee, 37745, United States",,37745,,College View,Greeneville,Greene County,Tennessee,United States,us,866,Crestview Drive
img_17053.jpg,43.94417953491211,1.1111352443695068,76974951,way,233359143,highway,unclassified,street,0,"Route des Méjas, Brousse, Les Méjas, Montaïn, Castelsarrasin, Tarn-et-Garonne, Occitanie, France métropolitaine, 82100, France",Route des Méjas,82100,Brousse,Les Méjas,Montaïn,Tarn-et-Garonne,Occitanie,France,fr,,
img_17054.jpg,48.45071029663086,-89.25176239013672,344503370,node,889038558,place,house,house,0,"1010, Dawson Road, Thunder Bay, Thunder Bay District, Northwestern Ontario, Ontario, P7B 5V1, Canada",,P7B 5V1,,,Thunder Bay,Thunder Bay District,Ontario,Canada,ca,1010,Dawson Road
img_17055.jpg,55.759063720703125,52.43378829956055,186893655,way,54224597,highway,footway,street,0,"бульвар Домостроителей, 22 комплекс, Автозаводский район, Набережные Челны, городской округ Набережные Челны, Татарстан, Приволжский федеральный округ, 423821, Россия",бульвар Домостроителей,423821,22 комплекс,Автозаводский район,Набережные Челны,городской округ Набережные Челны,Татарстан,Россия,ru,,
img_17056.jpg,55.64984893798828,11.435603141784668,137603377,way,678034851,highway,tertiary,street,0,"Cementvejen, Tornved, Holbæk Kommune, Region Sjælland, 4450, Danmark",Cementvejen,4450,,Tornved,Holbæk Kommune,,Region Sjælland,Danmark,dk,,
img_17057.jpg,-29.42402458190918,-65.35226440429688,4323602,way,169295573,highway,secondary,street,0,"RP20, Hospital, Recreo, Municipio de Recreo, Departamento La Paz, Catamarca, K5264, Argentina",RP20,K5264,Hospital,Recreo,Municipio de Recreo,Departamento La Paz,Catamarca,Argentina,ar,,
img_17058.jpg,10.54871940612793,7.39304256439209,36081448,way,486781235,highway,tertiary,street,0,"Rigasa, Igabi, Kaduna, Nigeria",,,,,Rigasa,Igabi,Kaduna,Nigeria,ng,,
img_17059.jpg,43.921630859375,-78.77143096923828,39183050,way,76808640,place,house,house,0,"3169, Hancock Road, Clarington, Durham Region, Golden Horseshoe, Ontario, L1E 2L8, Canada",,L1E 2L8,,,Clarington,Durham Region,Ontario,Canada,ca,3169,Hancock Road
img_17060.jpg,59.83780288696289,30.420637130737305,157168027,way,30695623,building,apartments,house,0,"3 к1, Моравский переулок, Обухово, Александровский округ, Санкт-Петербург, Северо-Западный федеральный округ, 192289, Россия",,192289,,Обухово,Санкт-Петербург,,Санкт-Петербург,Россия,ru,3 к1,Моравский переулок
img_17061.jpg,-8.223429679870605,115.30384826660156,25596905,way,726768432,highway,unclassified,street,0,"Daup, Bangli, Bali, Nusa Tenggara, Indonesia",,,,,Daup,Bangli,Bali,Indonesia,id,,
img_17062.jpg,48.21638870239258,16.368257522583008,174086632,node,5666546571,tourism,hotel,house,0,"Palais Hansen Kempinski Vienna, 24, Schottenring, Textilviertel, Innere Stadt, Wien, 1010, Österreich",Palais Hansen Kempinski Vienna,1010,Textilviertel,Innere Stadt,Wien,,,Österreich,at,24,Schottenring
img_17063.jpg,34.43097305297852,-83.8526840209961,358543539,way,9295597,place,house,house,0,"6281, Hubert Stephens Road, Marlow, Hall County, Georgia, 30506, United States",,30506,,Marlow,,Hall County,Georgia,United States,us,6281,Hubert Stephens Road
img_17064.jpg,44.989967346191406,18.86204719543457,58526508,way,98365805,highway,secondary,street,0,"4230, Općina Drenovci, Vukovarsko-srijemska županija, Hrvatska",4230,,,,Općina Drenovci,Vukovarsko-srijemska županija,,Hrvatska,hr,,
img_17065.jpg,45.643741607666016,3.1821744441986084,78893631,way,467442996,highway,motorway,street,0,"La Méridienne, Authezat, Clermont-Ferrand, Puy-de-Dôme, Auvergne-Rhône-Alpes, France métropolitaine, 63114, France",La Méridienne,63114,,,Authezat,Puy-de-Dôme,Auvergne-Rhône-Alpes,France,fr,,
img_17066.jpg,53.58695983886719,-113.55707550048828,348768400,way,31672901,highway,tertiary,street,0,"Dunvegan Road NW, Athlone, Northern Mature Area, Edmonton, Alberta, T5L 4S5, Canada",Dunvegan Road NW,T5L 4S5,Athlone,Northern Mature Area,Edmonton,,Alberta,Canada,ca,,
img_17067.jpg,-15.603249549865724,-47.65151977539063,14412114,way,228466770,highway,residential,street,0,"Via 9, Jardim Roriz, Setor Residencial Norte A - Jardim Roriz, Planaltina, Região Geográfica Imediata do Distrito Federal, Região Integrada de Desenvolvimento do Distrito Federal e Entorno, Região Geográfica Intermediária do Distrito Federal, Distrito Federal, Região Centro-Oeste, 73340-101, Brasil",Via 9,73340-101,Jardim Roriz,Setor Residencial Norte A - Jardim Roriz,Planaltina,Região Integrada de Desenvolvimento do Distrito Federal e Entorno,Distrito Federal,Brasil,br,,
img_17068.jpg,35.20705795288086,-97.46646881103516,306467171,way,1327938407,building,house,house,0,"1628, Avondale Drive, Norman, Cleveland County, Oklahoma, 73069, United States",,73069,,,Norman,Cleveland County,Oklahoma,United States,us,1628,Avondale Drive
img_17069.jpg,-38.16295623779297,145.94496154785156,18059687,way,46149951,highway,residential,street,0,"Rangeview Street, Warragul, Shire of Baw Baw, Victoria, 3820, Australia",Rangeview Street,3820,,,Warragul,,Victoria,Australia,au,,
img_17070.jpg,40.85161209106445,-74.0369644165039,376160962,way,11566916,place,house,house,0,"78, Poplar Avenue, Little Ferry, Bergen County, New Jersey, 07643, United States",,07643,,,Little Ferry,Bergen County,New Jersey,United States,us,78,Poplar Avenue
img_17071.jpg,52.45867156982422,44.19820785522461,179780222,way,708052678,building,yes,house,0,"24, улица Куйбышева, Сердобск, городское поселение Сердобск, Сердобский район, Пензенская область, Приволжский федеральный округ, 442891, Россия",,442891,,,Сердобск,Сердобский район,Пензенская область,Россия,ru,24,улица Куйбышева
img_17072.jpg,39.9832763671875,-74.06394958496094,317484532,way,1100618094,building,house,house,0,"20, Ocean Road, Ocean Beach, Toms River, Ocean County, New Jersey, 08735, United States",,08735,,Ocean Beach,Toms River,Ocean County,New Jersey,United States,us,20,Ocean Road
img_17073.jpg,10.60939884185791,104.2015151977539,238744357,way,872080915,highway,primary,street,0,"National Road 33, ក្រុងកំពត, ខេត្តកំពត, 070216, ព្រះរាជាណាចក្រ​កម្ពុជា",National Road 33,070216,,,ក្រុងកំពត,,ខេត្តកំពត,ព្រះរាជាណាចក្រ​កម្ពុជា,kh,,
img_17074.jpg,-12.02902889251709,-77.05038452148438,3319993,way,68852707,highway,residential,street,0,"Federico Noguera, Miguel Grau, San Martín de Porres, Lima, Lima Metropolitana, Lima, 15102, Perú",Federico Noguera,15102,Miguel Grau,San Martín de Porres,Lima Metropolitana,,Lima,Perú,pe,,
img_17075.jpg,49.47803497314453,0.5945078134536743,89836750,way,32544594,highway,secondary,street,0,"D 81, Notre-Dame-de-Gravenchon, Port-Jérôme-sur-Seine, Le Havre, Seine-Maritime, Normandie, France métropolitaine, 76330, France",D 81,76330,,Notre-Dame-de-Gravenchon,Port-Jérôme-sur-Seine,Seine-Maritime,Normandie,France,fr,,
img_17076.jpg,44.4721908569336,-73.1588134765625,381578134,way,991029425,place,house,house,0,"665, White Street, South Burlington, Chittenden County, Vermont, 05403, United States",,05403,,,South Burlington,Chittenden County,Vermont,United States,us,665,White Street
img_17077.jpg,34.68730545043945,135.5258026123047,249108048,node,4074519701,tourism,information,house,0,"登録有形文化財 大阪城天守閣, 1, 大阪城, 中央区, 大阪市, 大阪府, 540-0002, 日本",登録有形文化財 大阪城天守閣,540-0002,大阪城,中央区,大阪市,,大阪府,日本,jp,1,
img_17078.jpg,52.48659133911133,-1.859544277191162,256789356,way,20796184,highway,secondary,street,0,"Ash Road, Saltley Business Park Area, Vauxhall, Saltley, Birmingham, West Midlands, England, B8 1DB, United Kingdom",Ash Road,B8 1DB,Saltley Business Park Area,Vauxhall,Birmingham,West Midlands,England,United Kingdom,gb,,
img_17079.jpg,42.40493774414063,1.9891072511672967,76455638,way,36000750,highway,unclassified,street,0,"Route Forestière d'Osséja, Osséja, Prades, Pyrénées-Orientales, Occitanie, France métropolitaine, 66340, France",Route Forestière d'Osséja,66340,,,Osséja,Pyrénées-Orientales,Occitanie,France,fr,,
img_17080.jpg,-26.315710067749023,31.11418533325196,29982841,way,186521601,highway,residential,street,0,"Manzana, Mbabane, Inkhundla Mbabane, Hhohho, H100, eSwatini",,H100,Manzana,,Mbabane,Inkhundla Mbabane,Hhohho,eSwatini,sz,,
img_17081.jpg,42.99581527709961,17.478309631347656,51093787,way,145169392,highway,unclassified,street,0,"Dračeva Luka, Blace, Općina Slivno, Dubrovačko-neretvanska županija, 20357, Hrvatska",,20357,,Dračeva Luka,Blace,Dubrovačko-neretvanska županija,,Hrvatska,hr,,
img_17082.jpg,34.20448684692383,-92.11180877685548,370096209,way,12839738,place,house,house,0,"8581, Shannon Road, Pine Bluff, Jefferson County, Arkansas, 71603, United States",,71603,,,Pine Bluff,Jefferson County,Arkansas,United States,us,8581,Shannon Road
img_17083.jpg,45.546836853027344,3.245436191558838,78792215,way,279734532,highway,secondary,street,0,"Boulevard Pasteur, Le Piat, Issoire, Puy-de-Dôme, Auvergne-Rhône-Alpes, France métropolitaine, 63500, France",Boulevard Pasteur,63500,Le Piat,,Issoire,Puy-de-Dôme,Auvergne-Rhône-Alpes,France,fr,,
img_17084.jpg,-27.48500633239746,-58.99137115478516,8913137,way,263283309,place,house,house,0,"1833, Avenida Soberanía Nacional, Güiraldes, Resistencia, Municipio de Resistencia, Departamento San Fernando, Chaco, H3504BHB, Argentina",,H3504BHB,Güiraldes,Güiraldes,Municipio de Resistencia,Departamento San Fernando,Chaco,Argentina,ar,1833,Avenida Soberanía Nacional
img_17085.jpg,24.7001895904541,89.4009780883789,224132600,node,12169715682,highway,bus_stop,house,0,"Market bus stop garidaha, ঢাকা - বগুড়া মহাসড়ক, শেরপুর, শেরপুর উপজেলা, বগুড়া জেলা, রাজশাহী বিভাগ, 5842, বাংলাদেশ",Market bus stop garidaha,5842,,,শেরপুর,শেরপুর উপজেলা,রাজশাহী বিভাগ,বাংলাদেশ,bd,,ঢাকা - বগুড়া মহাসড়ক
img_17086.jpg,35.35953521728516,136.45535278320312,245487813,way,734093173,highway,trunk,street,0,"国道21号, 大字藤下, 関ケ原町, 不破郡, 岐阜県, 503-1592, 日本",国道21号,503-1592,大字藤下,,関ケ原町,不破郡,岐阜県,日本,jp,,
img_17087.jpg,5.607410907745361,-0.227828711271286,277689865,way,29970418,highway,residential,street,0,"Bobo Street, Tesano, Abeka, Accra, Okaikwei North Municipal District, Greater Accra Region, GA-254-4987, Ghana",Bobo Street,GA-254-4987,,Tesano,Accra,Okaikwei North Municipal District,Greater Accra Region,Ghana,gh,,
img_17088.jpg,49.3571891784668,0.5184171795845032,89999281,node,12022544605,place,house,house,0,"18, Route de Rouen, Pont-Audemer, Bernay, Eure, Normandie, France métropolitaine, 27500, France",,27500,,Pont-Audemer,Pont-Audemer,Eure,Normandie,France,fr,18,Route de Rouen
img_17089.jpg,42.73872375488281,-114.55687713623048,374604392,way,13843981,place,house,house,0,"195, West 100 North, Village West Mobile Home Park, Jerome, Jerome County, Idaho, 83338, United States",,83338,Village West Mobile Home Park,,Jerome,Jerome County,Idaho,United States,us,195,West 100 North
img_17090.jpg,42.61236953735352,23.37149429321289,52996304,way,217758326,highway,residential,street,0,"Башлийски езера, в.з. Малинова долина - Герена, Бистрица, Панчарево, Столична, София-град, 1166, България",Башлийски езера,1166,,в.з. Малинова долина - Герена,Панчарево,Столична,София-град,България,bg,,
img_17091.jpg,28.736486434936523,77.14762115478516,227320816,way,300025835,highway,residential,street,0,"Sanjay Gandhi Transport Nagar, Alipur Tehsil, North Delhi, Delhi, 110042, India",,110042,Sanjay Gandhi Transport Nagar,,,Alipur Tehsil,Delhi,India,in,,
img_17092.jpg,31.870121002197266,-102.40522003173828,385837050,way,123306933,place,house,house,0,"3426, Kermit Highway, Hawkins, Westside, Odessa, Ector County, Texas, 79764, United States",,79764,Hawkins,Westside,Odessa,Ector County,Texas,United States,us,3426,Kermit Highway
img_17093.jpg,6.147292613983154,125.17475128173828,241687904,way,369348629,highway,secondary,street,0,"NLSA Road, Paseo de Paz, San Isidro, General Santos, Soccsksargen, 9500, Pilipinas",NLSA Road,9500,Paseo de Paz,San Isidro,General Santos,,Soccsksargen,Pilipinas,ph,,
img_17094.jpg,42.33220672607422,-85.20988464355469,368891346,way,38859897,place,house,house,0,"1, Limit Street, Springfield, Calhoun County, Michigan, 49037, United States",,49037,,,Springfield,Calhoun County,Michigan,United States,us,1,Limit Street
img_17095.jpg,-33.50013732910156,151.3118438720703,19046764,way,39598552,highway,residential,street,0,"Everglades Crescent, Woy Woy, Central Coast Council, New South Wales, 2256, Australia",Everglades Crescent,2256,,,Woy Woy,,New South Wales,Australia,au,,
img_17096.jpg,-0.0764858126640319,100.61432647705078,28343777,way,680923372,highway,secondary,street,0,"Lima Puluh Kota, Sumatera Barat, Sumatera, Indonesia",,,,,,Lima Puluh Kota,Sumatera Barat,Indonesia,id,,
img_17097.jpg,37.36417770385742,-122.04785919189452,298322550,way,228404551,building,house,house,0,"906, Hillsboro Avenue, Sunnyvale, Santa Clara County, California, 94807, United States",,94807,,,Sunnyvale,Santa Clara County,California,United States,us,906,Hillsboro Avenue
img_17098.jpg,52.39344787597656,4.923454761505127,144162157,way,565523816,highway,primary,street,0,"Nieuwe Leeuwarderweg, Noord, Amsterdam, Noord-Holland, Nederland, 1022 BN, Nederland",Nieuwe Leeuwarderweg,1022 BN,,Noord,Amsterdam,,Noord-Holland,Nederland,nl,,
img_17099.jpg,42.3728141784668,-7.4246649742126465,270647881,way,828485641,highway,residential,street,0,"A Pena, Vilanova, Castro Caldelas, O Castro de Caldelas, Castro Caldelas, Terra de Caldelas, Ourense, Galicia, 32760, España",,32760,A Pena,Vilanova,O Castro de Caldelas,Terra de Caldelas,Galicia,España,es,,
img_17100.jpg,39.99321746826172,32.689754486083984,196246936,way,506623387,highway,tertiary,street,0,"2220. Cd., Çakırlar, Turgut Özal Mahallesi, Yenimahalle, Ankara, İç Anadolu Bölgesi, 06370, Türkiye",2220. Cd.,06370,Çakırlar,Turgut Özal Mahallesi,Yenimahalle,,Ankara,Türkiye,tr,,
img_17101.jpg,56.716156005859375,36.31504440307617,181988024,way,744467209,building,house,house,0,"3, Луговая улица, Городня, Конаковский муниципальный округ, Тверская область, Центральный федеральный округ, 171296, Россия",,171296,,,Городня,Конаковский муниципальный округ,Тверская область,Россия,ru,3,Луговая улица
img_17102.jpg,-6.215312004089356,106.75194549560548,26308799,way,569891001,highway,living_street,street,0,"RW 03, Joglo, Kembangan, Jakarta Barat, Daerah Khusus ibukota Jakarta, Jawa, 11640, Indonesia",,11640,RW 03,Kembangan,Daerah Khusus ibukota Jakarta,,Jawa,Indonesia,id,,
img_17103.jpg,4.580876350402832,-74.12680053710938,285877141,way,1169194392,highway,residential,street,0,"Carrera 25A, Inglés, UPZs de Bogotá, Localidad Rafael Uribe Uribe, Bogotá, Bogotá, Distrito Capital, RAP (Especial) Central, 111811, Colombia",Carrera 25A,111811,Inglés,Localidad Rafael Uribe Uribe,"Bogotá, Distrito Capital",,RAP (Especial) Central,Colombia,co,,
img_17104.jpg,-29.71080207824707,27.282690048217773,30558814,way,92976621,highway,secondary,street,0,"B24, Mafeteng District, Lesotho",B24,,,,,Mafeteng District,,Lesotho,ls,,
img_17105.jpg,51.06814956665039,-4.052942752838135,262521863,way,622995318,highway,residential,street,0,"Ladies' Mile, Rumsam, Barnstaple, North Devon, Devon, England, EX32 9AX, United Kingdom",Ladies' Mile,EX32 9AX,Rumsam,Barnstaple,North Devon,Devon,England,United Kingdom,gb,,
img_17106.jpg,22.62424659729004,120.26480865478516,217870818,relation,8209410,amenity,university,house,0,"國立中山大學, 70, 蓮海路, 桃源里, 鼓山區, 高雄市, 804, 臺灣",國立中山大學,804,桃源里,鼓山區,高雄市,,,臺灣,tw,70,蓮海路
img_17107.jpg,19.11542701721192,-97.74024200439452,287080120,way,301177664,highway,secondary,street,0,"Vista Hermosa, San Mateo Soltepec, Soltepec, Puebla, 75140, México",,75140,,Vista Hermosa,San Mateo Soltepec,Soltepec,Puebla,México,mx,,
img_17108.jpg,41.14726257324219,14.401654243469238,72252658,way,86302869,highway,tertiary,street,0,"Via Volturno, Cesine, Caiazzo, Caserta, Campania, 81013, Italia",Via Volturno,81013,,Cesine,Caiazzo,Caserta,Campania,Italia,it,,
img_17109.jpg,-23.602840423583984,-46.5976448059082,8093454,way,782423837,highway,primary,street,0,"Viaduto Almirante Delamare, Sacomã, São Paulo, Região Imediata de São Paulo, Região Metropolitana de São Paulo, Região Geográfica Intermediária de São Paulo, São Paulo, Região Sudeste, 04218-040, Brasil",Viaduto Almirante Delamare,04218-040,,Sacomã,São Paulo,Região Metropolitana de São Paulo,São Paulo,Brasil,br,,
img_17110.jpg,56.84223175048828,53.235633850097656,186164318,way,56437177,building,yes,house,0,"37А, улица Владимира Краева, Соцгород, Центральный, Первомайский район, городской округ Ижевск, Удмуртия, Приволжский федеральный округ, 426063, Россия",,426063,Соцгород,Центральный,городской округ Ижевск,,Удмуртия,Россия,ru,37А,улица Владимира Краева
img_17111.jpg,28.44031143188477,-97.7614974975586,359255752,way,1220172730,place,house,house,0,"4489, North Saint Mary's Street, Bee County, Texas, 78102, United States",,78102,,,,Bee County,Texas,United States,us,4489,North Saint Mary's Street
img_17112.jpg,28.635040283203125,77.10547637939453,227925565,way,1076331251,highway,residential,street,0,"Tihar, Rajouri Garden Tehsil, West Delhi, Delhi, 110064, India",,110064,Tihar,,,Rajouri Garden Tehsil,Delhi,India,in,,
img_17113.jpg,50.71992492675781,-1.1137374639511108,261248239,way,1426942,highway,residential,street,0,"Ryde Road, Nettlestone and Seaview, Seaview, Isle of Wight, England, PO34 5AB, United Kingdom",Ryde Road,PO34 5AB,,Nettlestone and Seaview,Seaview,Isle of Wight,England,United Kingdom,gb,,
img_17114.jpg,48.94664001464844,2.596190929412842,87795177,way,26370198,highway,residential,street,0,"Rue de la Libération, Villeparisis, Meaux, Seine-et-Marne, Île-de-France, France métropolitaine, 77270, France",Rue de la Libération,77270,,,Villeparisis,Seine-et-Marne,Île-de-France,France,fr,,
img_17115.jpg,43.105262756347656,44.62390899658203,194088747,way,194909184,highway,residential,street,0,"Цветочная улица, Михайловское, Михайловское сельское поселение, Пригородный район, Северная Осетия — Алания, Северо-Кавказский федеральный округ, Россия",Цветочная улица,,,,Михайловское,Пригородный район,Северная Осетия — Алания,Россия,ru,,
img_17116.jpg,56.31466674804688,38.44988250732422,182928095,way,37122437,highway,unclassified,street,0,"Старинки, Каринское сельское поселение, Александровский район, Владимирская область, Центральный федеральный округ, Россия",,,,Старинки,Каринское сельское поселение,Александровский район,Владимирская область,Россия,ru,,
img_17117.jpg,-12.010600090026855,-77.1056137084961,3334250,way,439025539,highway,primary,street,0,"Avenida Paseo Japón, Los Jazmines, Lima Metropolitana, Callao, 07036, Perú",Avenida Paseo Japón,07036,Los Jazmines,,Lima Metropolitana,Callao,Callao,Perú,pe,,
